restaurant,cuisine_type,location,price_level,rating,review_count,Latitude,Longitude
Healy Mac's Irish Bar & Restaurant,"Irish,Bar,European","3A-G9 & G10, Straits Quay Jalan Seri Tanjung Pinang, Tanjung Tokong, Penang Island Malaysia",2,4.5,1409,5.4580314,100.3133518
Knife and Fork Restaurant,"Asian,Vegetarian Friendly","1-2B Eden Parade Jalan Sungai Emas, Batu Ferringhi Batu Ferringhi, Batu Ferringhi, Penang Island 11100 Malaysia",1,5,240,5.4759723,100.2523891
Two Frenchies Cafe Bistrot,"French,European,Vegetarian Friendly","36 Lebuh Bishop, George Town, Penang Island 10200 Malaysia",2,5,439,5.4185796,100.3418116
Salsas Penang,"Bar,Vegetarian Friendly","86, Love Lane, George Town, Penang Island 10200 Malaysia",2,4.5,199,5.4187207,100.3363801
Cheang Kee,"Chinese,Seafood,Asian","433 Chulia Street, George Town, Penang Island 10200 Malaysia",1,5,362,5.419114,100.3343925
Orinea by Farquhar Mansion,"Contemporary,Vegetarian Friendly,Vegan Options","68-18-1, Sunrise Gurney, Persiaran Gurney, George Town, Penang Island 10250 Malaysia",3,4.5,843,5.4382652,100.3100319
The Loft - Love Lane,"European,Neapolitan,Campania","57 Love Lane, George Town, Penang Island 10200 Malaysia",2,4.5,408,5.4189576,100.3367247
Laksalicious,"Asian,Nonya/Malaysian,Malaysian","Laksalicious 117A Hutton Lane Georgetown, Penang Island 10050 Malaysia",1,4.5,388,5.420095,100.3300579
SUPE - Georgetown Branch,"Cafe,Sushi,Asian","No 12 Gat Lebuh Acheh, George Town, Penang Island 10300 Malaysia",2,4.5,251,5.4130315,100.3379799
Junk Cafe,"Bar,Cafe,Gastropub","No 1 Jalan Pintal Tali, George Town, Penang Island 10100 Malaysia",2,4.5,388,5.4184474,100.3353722
Kebaya Dining Room,"Chinese,Asian,Fusion","2-16 Lorong Stewart, George Town, Penang Island 10200 Malaysia",3,4.5,1534,5.4184463,100.3387211
Kota Dine & Coffee,"Cafe,Asian,Fusion","Jalan Tun Syed Sheh Barakbah, George Town, Penang Island 10200 Malaysia",2,4.5,419,5.4217431,100.3426947
Andrew's Kampung,"Chinese,Asian,Nonya/Malaysian","Eden Parade 2nd Floor, Batu Ferringhi, Penang Island 11100 Malaysia",1,4.5,1374,5.4759723,100.2523891
Pit Stop no.12,"Cafe,Vegetarian Friendly,Vegan Options","12 Lorong Chulia, George Town, Penang Island 10200 Malaysia",2,4.5,223,5.4182741,100.3372891
My Own Cafe,"Cafe,Asian,Malaysian","2 Lebuh Cannon Opposite Khoo Kongsi, George Town, Penang Island 10200 Malaysia",1,4.5,429,5.4151933,100.3366914
Kimpo Famous Roasted,"Chinese,Asian,Malaysian","No. 20 Leith Street, George Town, Penang Island 10000 Malaysia",1,4.5,233,5.4210744,100.3343995
Holy Guacamole - Love Lane,"Mexican,Latin,Bar","65 Love Lane, George Town, Penang Island 10200 Malaysia",2,4.5,754,5.4187526,100.3366283
Indigo Restaurant at The Blue Mansion,"French,European,Fusion","14 Lebuh Leith 14 Leith Street, George Town, Penang Island 10200 Malaysia",3,4.5,325,5.421531,100.3348789
Lagenda Cafe,"Cafe,Asian,Malaysian","2 Carnavon Street, George Town, Penang Island 10100 Malaysia",2,4.5,356,5.4180068,100.3361969
Jawi House Cafe Gallery,"Malaysian,Arabic,Vegetarian Friendly","85 Armeniam Street, George Town, Penang Island 10200 Malaysia",2,4.5,665,5.4155932,100.336611
Bistro Tang,"Cafe,Asian,Fusion","82-A Penang Street, George Town, Penang Island 10200 Malaysia",2,4.5,247,5.4176519,100.3402589
Edelweiss Cafe,"Swiss,Vegetarian Friendly","38 Armeniam Street, George Town, Penang Island 10200 Malaysia",2,4.5,294,5.4150939,100.3377819
Living Room Cafe Bar & Gallery,"International,Asian,Fusion","43 C Batu Ferringhi, Batu Ferringhi, Penang Island 11100 Malaysia",2,4.5,1697,5.4686929,100.2429518
Mews Cafe,"Cafe,Asian,Nonya/Malaysian","77 Lebuh Muntri, George Town, Penang Island 10200 Malaysia",2,4.5,1190,5.4199338,100.3351201
Tek Sen Restaurant,"Malaysian,Vegetarian Friendly,Vegan Options","18 Lebuh Carnarvon, George Town, Penang Island 10100 Malaysia",2,4.5,1582,5.417437,100.335962
Feringgi Grill,"European,Vegetarian Friendly,Vegan Options","Jalan Batu Ferringi Shangri-La's Rasa Sayang Resort and Spa, Batu Ferringhi, Penang Island 11100 Malaysia",3,4.5,488,5.4780334,100.2541146
Boatman Restaurant,"Chinese,Asian,Malaysian","No. 46, Batu Ferringhi, Penang Island Malaysia",1,4.5,312,5.47124,100.246491
US Pizza,"Italian,American,Pizza","3D Lorong Delima Greenlane, George Town, Penang Island 11700 Malaysia",2,5,160,5.3835104,100.3030902
Enca Cafe & Restaurant,"Indian,Asian,Malaysian","Jalan Batu Feringghi, Batu Ferringhi, Penang Island 11100 Malaysia",1,4.5,425,5.477061,100.2533085
Lavish,"Cafe,Fusion,Vegetarian Friendly","214, Lebuh Victoria, Penang Island 10300 Malaysia",2,4.5,1537,5.414283,100.3401192
D'Loovi's,"Bar,Asian,Pub","24, Lebuh Melayu, George Town, Penang Island 10100 Malaysia",2,5,93,5.4132342,100.3354677
Helena's Cafe,"Asian,Nonya/Malaysian,Malaysian","43B Jalan Batu Ferringhi opp Yahong Gallery, Batu Ferringhi, Penang Island 11100 Malaysia",2,4.5,793,5.4686929,100.2429518
Heritage Artisans,"Chinese,Asian,Contemporary","53 Jalan Padang Victoria, George Town, Penang Island 10400 Malaysia",3,5,151,5.4217305,100.3211342
20 Chulia Lane Cafe,"Fusion,Healthy,Nonya/Malaysian","20 Lorong Chulia, George Town, Penang Island 10200 Malaysia",2,5,124,5.4188721,100.3376525
Pinxin Vegan Cuisine,"Cafe,Asian,Fusion","38, Lebuh Tye Sin, George Town, Penang Island 10300 Malaysia",2,4.5,153,5.4103597,100.3308118
What the Duck Restaurant Penang,Asian,"40 Jalan Nagore, George Town, Penang Island 10050 Malaysia",2,4.5,234,5.421059,100.325838
Puree Juice,"Cafe,International,Asian","6, Lebuh Ah Quee, Penang Island 10300 Malaysia",1,5,60,5.4156488,100.3386611
Bite N Eat Dindigul Biriyani,"Indian,Asian,Vegetarian Friendly","43 Penang Street, George Town, Penang Island 10200 Malaysia",2,4.5,388,5.4176511,100.3406564
WHEELER'S,"Cafe,Fusion,Healthy","67 Jalan Love Lane, George Town, Penang Island 10200 Malaysia",2,4.5,582,5.4187871,100.3365876
Rubin Mardini Cafe Restaurant,"Lebanese,Mediterranean,Turkish","Jalan Batu Ferringhi No 591, Batu Ferringhi, Penang Island 11100 Malaysia",1,5,99,5.4796341,100.2612737
The Book Sandwich Cafe,"International,Vegetarian Friendly","217 Lebuh Pantai, George Town, Penang Island 10300 Malaysia",2,4.5,300,5.4137911,100.3377644
Ivy's Nyonya Cuisine,"Asian,Nonya/Malaysian,Malaysian","58 Jln Chow Thye, George Town, Penang Island 10250 Malaysia",2,4.5,495,5.4247911,100.3205736
Yeap Noodles,"Chinese,Asian,Malaysian","No. 227 Chulia Street 10200 Georgetown, Penang Island Malaysia",1,4.5,325,5.417653,100.3370166
Il Bacaro,"Italian,Pizza,Grill","Campbell House,106 Campbell Street Georgetown, Penang Island 10100 Malaysia",2,4.5,508,5.4181722,100.33365
Long Beach,"Chinese,Indian,Asian","Batu Feringgi Beach, Batu Ferringhi, Penang Island 11100 Malaysia",1,4.5,2864,5.4750496,100.276679
The Spice Market Cafe,"International,Asian,Malaysian","Jalan Batu Ferringhi Batu Feringgi Beach, Batu Ferringhi, Penang Island 11100 Malaysia",2,4.5,515,5.4750496,100.276679
Auntie Gaik Lean's,"Asian,Nonya/Malaysian,Malaysian","No.1, Bishop Street, Penang Island 10200 Malaysia",2,4.5,241,5.4179546,100.3423558
Via Pre Italian Restaurants,"Italian,Mediterranean,Tuscan","20e, Lebuh Penang, George Town, Penang Island 10200 Malaysia",2,4.5,385,5.419317,100.341356
DEEN MAJU,"Indian,Asian,Malaysian","170 Jalan Gurdwara, George Town, Penang Island 10300 Malaysia",1,4.5,215,5.4097434,100.3281237
Malaya,"Indian,Asian,Malaysian","153F, Jalan Hutton, George Town, Penang Island 10050 Malaysia",2,5,66,5.420959,100.3288386
Ferringhi Garden Restaurant,"Chinese,Asian,Central European","34 A, B & C, Jalan Batu, Penang Island 11100 Malaysia",2,4.5,2063,5.3673161,100.2486493
The Leaf Healthy Recipes,"Asian,Diner,Healthy","No. 5 Lebuh Penang 10200, George Town, Penang Island 10200 Malaysia",2,,0,5.4185958,100.3411422
HYGGE Dining & Bar,"European,Asian,Vegetarian Friendly","58, Jalan Kuala Kangsar Near the penang art, George Town, Penang Island 10450 Malaysia",1,5,70,5.4165994,100.3314723
Olive Kitchen + Bar,"Indian,Bar,Pub","3J Jalan Penang, George Town, Penang Island 10000 Malaysia",2,4,302,5.4176385,100.3316512
Guan Guan Cafe,"Chinese,Asian,Malaysian","Jalan Batu Ferringhi, Batu Ferringhi, Penang Island 11100 Malaysia",1,4,379,5.477061,100.2533085
Three Sixty Revolving Restaurant Skybar,"Bar,Asian,Malaysian","Three Sixty Revolving Restaurant Skybar 25-A Lebuh Farquhar George Town, Penang Island 10200 Malaysia",2,4,329,5.422183,100.336097
Ayer Itam Penang Assam Laksa,"Asian,Malaysian","Jalan Pasar Ayer Itam, Penang Island Malaysia",1,4,355,5.4014545,100.2773491
Makan Kitchen,"Asian,Malaysian,Vegetarian Friendly","56 Jalan Low Yat Lower Ground Floor of DoubleTree Resort by Hilton Penang, Batu Ferringhi, Penang Island 11100 Malaysia",2,4.5,187,5.4775017,100.2694728
Woodlands Vegetarian Restaurant,"Indian,Asian,Vegetarian Friendly","60 Lebuh Penang, George Town, Penang Island 10200 Malaysia",1,4,427,5.417984,100.3405568
Mr. Shawerma,"Middle Eastern,Vegetarian Friendly,Vegan Options","Lebuh Chulia 273a, George Town, Penang Island 10200 Malaysia",1,4.5,116,5.4179103,100.3368081
Miami Cafe,"Bar,Cafe,Asian","19 Batu Ferringhi Road, Penang Island 11100 Malaysia",1,,0,5.47124,100.246491
Bean Sprout Cafe,"American,Cafe,British","35 Jalan Masjid Kapitan Keling, Penang Island 10200 Malaysia",2,4.5,92,5.4180163,100.3387598
Emily's Steakhouse Penang,"Steakhouse,British","89, Muntri Street, George Town, Penang Island 10300 Malaysia",2,4,186,5.4201704,100.3348581
Ferringhi Coffee Garden,"Cafe,International,Vegetarian Friendly","43-D Batu Ferringhi 11100, Penang Island Malaysia",2,4.5,190,5.47124,100.246491
Sri Weld Food Court,"Asian,Malaysian","Lebuh Pantai Colonial District, George Town, Penang Island Malaysia",1,4,111,5.415099,100.339043
The Jetty Food Court,"Chinese,Asian,Malaysian","49-F Pengkalan Weld, George Town, Penang Island Malaysia",1,4,132,5.4133102,100.3391866
Urban Daybreak,"Cafe,Vegetarian Friendly,Vegan Options","338 Lebuh Pantai, George Town, Penang Island 10300 Malaysia",2,4.5,137,5.413441,100.3371634
Smokepapa BBQ,"American,Southwestern,Fast food","41 Lebuh Bishop, George Town, Penang Island 10200 Malaysia",1,5,43,5.4184744,100.3417017
Mish Mash,"Bar,European,Pub","24 Lebuh Muntri, George Town, Penang Island 10200 Malaysia",2,4.5,170,5.4199358,100.3361757
Moh Teng Pheow Nyonya Koay Penang,"Asian,Nonya/Malaysian,Malaysian","Lebuh Chulia Entrance on Jalan Masjid, Off Chulia Street, George Town, Penang Island 10200 Malaysia",2,4,204,5.4183589,100.336095
Yeng Keng Cafe,"Chinese,Cafe,Asian","36, Chulia Street, George Town, Penang Island Malaysia",2,4,183,5.4160839,100.3390747
Kedai Kopi Ho Ping,"Chinese,Asian,Malaysian","Jalan Kampung Malabar Off Penang Road, George Town, Penang Island 10100 Malaysia",1,4.5,98,5.4194076,100.3321584
Viva Local Food Haven,"Asian,Malaysian","Jalan Tanjong Tokong, Tanjung Tokong, Penang Island 10470 Malaysia",1,4,123,5.4477986,100.3053998
The Brick Cafe,"German,Cafe,Asian","17, Seck Chuan Lane, George Town, Penang Island 10200 Malaysia",1,4.5,63,5.4357304,100.3441758
Maple Palace Restaurant,"Chinese,Asian,Cantonese","47 Jalan Sultan Ahmad Shah 10050, George Town, Penang Island 10050 Malaysia",2,4,121,5.4259746,100.3230015
Kim Haus,"Italian,American,Bar","9 Campbell Street, George Town, Penang Island 10100 Malaysia",2,4,169,5.4171306,100.335193
Foong Wei Heong Restaurant,"Chinese,Asian,Cantonese","Sri Bahari Road, George Town, Penang Island Malaysia",2,4,152,5.421174,100.3319824
Awesome Canteen at Sekeping Victoria,"Japanese,American,Cafe","164 Lebuh Victoria Sekeping Victoria, George Town, Penang Island 10300 Malaysia",2,4,166,5.4136096,100.3394176
Teels Heritage Cafe,"Cafe,Asian,Vegetarian Friendly","144-G H Burmah Rd, George Town, Penang Island 10050 Malaysia",2,4.5,67,5.4321233,100.3287399
Sarkies Corner,"International,Asian,Malaysian","10 Lebuh Farquhar Chinatown, George Town, Penang Island 10200 Malaysia",2,4,401,5.4233727,100.3356682
Kimberly Street Koay Chiap,"Chinese,Asian,Malaysian","Kimberly Street, George Town, Penang Island 10200 Malaysia",1,4,216,5.41687,100.3319316
Din Tai Fung @ Penang Gurney Plaza,"Chinese,Asian,Taiwanese","Lot B1-05C, Basement 1 Penang Gurney Plaza, George Town, Penang Island 10250 Malaysia",2,4.5,113,5.4380431,100.3100232
Soul Cafe,"Italian,Cafe,European","12 Jalan Kek Chuan, George Town, Penang Island 10400 Malaysia",2,4,144,5.4151043,100.3245416
Viva Victoria,"European,Asian,Fusion","169 Lebuh Victoria, George Town, Penang Island 10300 Malaysia",2,4.5,50,5.4136238,100.3385844
Beach Cafe,"Cafe,Asian,Malaysian","Jalan Batu Ferringhi Batu Ferringhi Beach, Batu Ferringhi, Penang Island 11100 Malaysia",1,4.5,90,5.4734004,100.2460575
Siam Road Charcoal Char Koay Teow,"Asian,Malaysian","Siam Road Off Jalan Anson, George Town, Penang Island 10400 Malaysia",1,4,135,5.4155987,100.3202894
Gusto Cafe,"Cafe,International,Vegetarian Friendly","4 Jalan Sungai Kelian Tanjung Bunga 11200, Penang Island 11200 Malaysia",2,4.5,145,5.4649592,100.2912248
No.11 Specialty Restaurant,Fusion,"11, Jalan Teluk Bahang, Teluk Bahang, Penang Island 11050 Malaysia",,5,45,5.4619591,100.2195809
Bali Hai Seafood Market,"Chinese,Seafood,Asian","Bali Hai Seafood Market Bali Hai Seafood Market 90 Persiaran Gurney, Penang Island 10250 Malaysia",2,4,421,5.4337976,100.3153693
Let's Meat,"American,Cafe,Diner","18 Lebuh Lembah Permai 4, Tanjung Bungah, Penang Island 11200 Malaysia",2,4.5,80,5.4544125,100.2904433
Antarabangsa Enterprise,,"21 Lorong Stewart Behind the Goddess of Mercy Temple, George Town, Penang Island 10200 Malaysia",1,4.5,54,5.4184719,100.3387599
Winn's Cafe,Malaysian,"2 Irrawady Road Georgetown, Penang Island 10250 Malaysia",2,4.5,73,5.4141307,100.3287506
Chulia Court,"Bar,Vegetarian Friendly","355 Lebuh Chulia, George Town, Penang Island 10200 Malaysia",2,4,213,5.4183684,100.3360259
DeHappy Seafood Restaurant,"Chinese,Seafood,Asian","58 Macalister Opposite BSN Bank Macalister Road, George Town, Penang Island 10400 Malaysia",2,4,259,5.417906,100.3205568
The View,"French,European,Gluten Free Options","1 Jalan Bukit Jambul Hotel Equatorial Penang, Bayan Lepas, Penang Island 11900 Malaysia",3,4.5,74,5.337476,100.2845764
Fu Er Dai,"Chinese,Asian,Cantonese","7 Jalan Sultan Ahmad Shah, George Town, Penang Island 10050 Malaysia",2,4,60,5.4232016,100.3327083
Planters Lounge,"International,Asian","10 Lebuh Farquhar Eastern & Oriental Hotel, 6th floor, George Town, Penang Island 10200 Malaysia",2,4.5,72,5.4231701,100.3357086
Thali NR Sweets Cafe,"Indian,Asian,Vegetarian Friendly","Thali NR Sweets Cafe 75 Penang Street Georgetown Little India, Penang Island 10200 Malaysia",1,4,130,5.4171765,100.3393185
Teakadai Cafe,"Cafe,Vegetarian Friendly","No. 68,, George Town, Penang Island Malaysia",2,5,29,5.4141307,100.3287506
Hameed Pata Special Mee,"Asian,Malaysian,Halal","Jalan Tun Syed Sheh Barakbah, George Town, Penang Island 10200 Malaysia",1,4,91,5.4217431,100.3426947
Two Buns Penang,"Quick Bites,American,Fast food","177 Lebuh Carnarvon (Corner unit of intersection between Carnarvon Street and Lebuh Melayu), George Town, Penang Island 10100 Malaysia",2,4.5,75,5.4148279,100.3343145
Li Er Cafe,"Cafe,Asian,Malaysian","349 Jalan Burma, George Town, Penang Island 10350 Malaysia",2,4.5,46,5.4309052,100.3121559
Tan Sam Guan Seafood,"Chinese,Seafood,Asian","Batu Ferringi Road in the lane between Golden Sands Resort and Lone Pine Hotel, Penang Island Malaysia",1,5,56,5.4762606,100.2501211
Narrow Marrow,"Cafe,Malaysian","312 Lebuh Pantai Heritage Shop Lot Untouched Facade in Worn Off White., George Town, Penang Island 10300 Malaysia",2,4.5,62,5.4137967,100.3376003
Sarkies,"Asian,Vegetarian Friendly","Sarkies 10 Lebuh Farquhar, Penang Island 10200 Malaysia",2,4,109,5.4233776,100.3348265
"I Love You, Cafe Batu Ferringhi","Chinese,Seafood,Asian","Jalang Batu Ferringhi, Batu Ferringhi, Penang Island Malaysia",1,4,170,5.477061,100.2533085
The Hillside,"Cafe,European,Fusion","No 3 Jalan Sungai Kelian, Tanjung Bungah, Penang Island 11120 Malaysia",2,4,136,5.464514,100.2912905
Monaliza bar-restaurant,"Bar,Asian,Malaysian","369 Lebuh Chulia, George Town, Penang Island Malaysia",1,4,80,5.418478,100.3357892
The Mermaid Cafe.Ikan Bakar,"Dessert,Cafe,Seafood","86b&C Lorong Macalister, George Town, Penang Island 10400 Malaysia",1,5,29,5.4164852,100.3286851
Gudang Cafe,"Japanese,American,Cafe","5 Gat Lebuh Armenian, George Town, Penang Island 10300 Malaysia",2,4.5,74,5.4138126,100.3387488
Arte Restaurant Penang,"French,European,Fusion","25 Jalan Argyll, George Town, Penang Island 10050 Malaysia",2,4.5,80,5.4203868,100.3319481
Old Green House Prawn Mee,"Chinese,Malaysian","223 Jalan Burma, George Town, Penang Island 10500 Malaysia",1,4,103,5.4235629,100.3210449
David Brown's Restaurant and Tea Terraces,"European,British,Vegetarian Friendly","David Brown's Restaurant and Tea Terraces Lot 400 Daerah Bart Daya 17 Mk Strawberry Hill, Bukit Bendera, Ayer Itam, Penang Island 11300 Malaysia",2,3.5,323,5.402693,100.2782329
Super Tanker Food Centre ( Food Center),"Chinese,Asian,Malaysian","Jalan Nipah, Bayan Lepas, Penang Island 11900 Malaysia",1,4,69,5.341265,100.2963888
Lily's Vegetarian Kitchen,"Asian,Malaysian,Vegetarian Friendly","98 Lorong Madras, George Town, Penang Island 10400 Malaysia",1,4.5,88,5.4161798,100.3259118
Kafe Kheng Pin,"Asian,Malaysian","80 Jalan Penang, George Town, Penang Island 10000 Malaysia",1,4,95,5.420566,100.3328239
Miraku Restaurant,"Japanese,Sushi,Asian","G Hotel Gurney Drive, George Town, Penang Island Malaysia",2,4,110,5.4377331,100.3105747
Baa Baa Black Sheep,"Cafe,Grill,Vegetarian Friendly","8A Jalan Tanjung Bungah Penang, Malaysia, George Town, Penang Island 11200 Malaysia",2,4.5,57,5.4658405,100.2898551
Urban Spice Cafe,"Chinese,Cafe,Asian","12A Lebuh Lembah Permai 4, George Town, Penang Island 10200 Malaysia",2,,0,5.4547806,100.2904087
Thong Thai Fusion Restaurant,"Asian,Thai,Vegetarian Friendly","59 Lebuh Cintra, Penang Island 10100 Malaysia",2,5,27,5.4173865,100.3334302
Home Style Restaurant,"Chinese,Asian","2 Lebuh Lembah Permai 4 Permai 32, George Town, Penang Island 11200 Malaysia",2,4,51,5.4550997,100.2902772
Crc Chinese Restaurant Sdn Bhd,"Chinese,Asian,Cantonese","22 Pangkor Road Penang, Penang Island 10500 Malaysia",2,4.5,40,5.4254015,100.3173182
Kedai Kopi Seng Thor,"Chinese,Asian,Malaysian","160 Lebuh Carnavon St, Penang Island Malaysia",1,4,64,5.415344,100.3346815
Yong Pin Restaurant,"Chinese,Asian,Cantonese","11-C Jalan Sungai Ujong, George Town, Penang Island Malaysia",1,4,63,5.4159821,100.3322337
CREAM by ChinChin,European,"140 Jalan Pintal Tali, George Town, Penang Island 10100 Malaysia",2,4.5,27,5.415503,100.332441
Cinnamon Asian Kitchen,"International,Barbecue,Asian","PARKROYAL Penang Resort, Batu Ferringhi, Penang Island 11100 Malaysia",2,4.5,31,5.4722851,100.2461974
Little Kitchen,"Asian,Nonya/Malaysian,Malaysian","179 Lebuh Noordin, George Town, Penang Island 10300 Malaysia",2,4,126,5.412961,100.328917
Deluxious Spa & Restaurant,Contemporary,"17A Jalan Sultan Ahmad Shah, George Town, Penang Island 10050 Malaysia",2,4,56,5.4232109,100.3298142
Presgrave St. Hawker Stalls (3rd Rd.),"Chinese,Asian,Malaysian","67-D Lebuh Presgrave, George Town, Penang Island 10300 Malaysia",1,4.5,58,5.4112947,100.3305568
Aki Pancake,"Fast food,Asian,Malaysian","Super Tanker Food Court, Lin Sin Garden, Penang Island Malaysia",1,4.5,36,5.3673161,100.2486493
Yun Shan Ge Vegetarian House,"Chinese,Asian,Malaysian","16, Penang Street, George Town, Penang Island Malaysia",2,4.5,35,5.4196722,100.3415554
Khuntai Restaurant Penang,"Seafood,Asian,Thai","1052 Mk 9 Pasir Belanda, Bayan Lepas, Penang Island 11920 Malaysia",2,4,71,5.2886503,100.2194725
Restoran Tajuddin Hussain,"Indian,Asian,Malaysian","51 Lebuh Queen, George Town, Penang Island 10200 Malaysia",1,4,59,5.417272,100.3386489
Yue Ping Bean Sprout Chicken,"Chinese,Asian,Malaysian","66 & 68 Lebuh Kimberley, George Town, Penang Island 10100 Malaysia",1,4.5,28,5.416129,100.333292
Farquhar's Bar,"Bar,Pub,Vegetarian Friendly","Farquhar's Bar Farquhar's Bar Eastern and Oriental Hotel, Penang Island 11200 Malaysia",2,4,130,5.4233776,100.3348265
"Gravity, Rooftop Bar, G Kelawai, Penang","Bar,Pub","2 Persiaran Maktab G Hotel Kelawai, George Town, Penang Island 10250 Malaysia",2,4,81,5.4355512,100.3099313
Vintage Bulgaria Restaurant & Bar,,,2,4,112,,
Dragon-i,"Chinese,Asian,Cantonese","Persiaran Bayan Indah, Sungai Nibong, Penang Island Malaysia",2,4,52,5.3314513,100.3084303
Kek Seng Cafe,"Chinese,Asian,Malaysian","383 Jalan Penang Chinatown, George Town, Penang Island Malaysia",1,4,89,5.4181335,100.331525
218 Hainan Lor Mee,"Chinese,Asian,Street Food","218, Jalan Burma Opposite Wisma Perkeso, Penang, Penang Island 10350 Malaysia",1,4.5,24,5.429165,100.3141059
Garden Cafe,"Japanese,International,European","152B Jalan Batu Ferringhi Golden Sands Resort, Shamrock Beach, Penang Island 11100 Malaysia",2,4,137,5.4771435,100.2535501
Areca Cafe,"European,Asian,Fusion","No.27, Jalan Khoo Sian Ewe Areca Hotel, Penang Island 10500 Malaysia",2,4.5,26,5.4172176,100.329902
Sungai Pinang Food Court,"Asian,Malaysian","Jalan Sungai Pinang Jelutong Highway, Penang Island Malaysia",1,4,60,5.401779,100.3238703
Ee Beng Vegetarian Food,"Asian,Malaysian,Vegetarian Friendly","20 Lebuh Dickens Chinatown, George Town, Penang Island 10050 Malaysia",1,4,70,5.41907,100.3308118
Harvest In Cafe,"Cafe,Asian,Vegetarian Friendly","Harvest In Cafe 10 Jalan Irrawaddy, Penang Island 10050 Malaysia",2,4,68,5.4256083,100.3215153
Chin Chin Gastropub,"Bar,Contemporary,Pub","25G Lintang Burma Pulau Tikus, George Town, Penang Island 10250 Malaysia",2,4.5,43,5.432999,100.3114218
Kopitan at Armenian St Heritage Hotel,"Asian,Greek,Malaysian","139-1-01 Armeniam Street Lebuh Carnarvon, George Town, Penang Island 10200 Malaysia",2,4,79,5.4153795,100.3357634
The Little Nyonya Cuisine,"Asian,Nonya/Malaysian,Malaysian","170-B1-32B, Plaza Gurney Persiaran Gurney, Penang Island Malaysia",2,3.5,134,5.4380431,100.3100232
Restoran Sup Hameed,"Indian,Asian,Soups","48 Jln Penang Chinatown, George Town, Penang Island Malaysia",1,3.5,159,5.4220239,100.3337716
Nasi Kandar Deen,"Asian,Malaysian","Jalan Jelutong, George Town, Penang Island Malaysia",1,4,39,5.3963418,100.3182566
L Kitchen ,"Chinese,Asian,Vegetarian Friendly","170 - 172 Campbell Street, George Town, Penang Island 10100 Malaysia",1,4.5,39,5.4187414,100.3322648
Beach Corner Seafood,"Chinese,Seafood,Asian","72D, Batu Ferringhi, Batu Ferringhi, Penang Island 11100 Malaysia",2,3.5,160,5.47124,100.246491
The Hilltop Thai Restaurant,"Chinese,Seafood,Asian","Lot 239, Permadangan Indah 6 Jalan Tun Sardon, Balik Pulau, Penang Island 11000 Malaysia",2,4,46,5.3508,100.2395864
Ayer Itam Sister Curry mee,"Chinese,Asian,Malaysian","Jalan Air Itam, Penang Island 11500 Malaysia",1,4,41,5.4044185,100.2853158
Aji Noren Japanese Restaurant,"Japanese,Asian","98-G-35, Prima Jalan Fettes, George Town, Penang Island 11200 Malaysia",2,4.5,43,5.4517533,100.3043069
PISA Corner Cafe,"Chinese,Japanese,Southwestern","Opposite of Penang International Sport Arena, Penang Island Malaysia",1,4.5,28,5.3283057,100.2808706
Roast & Bake Cafe and Dessert,Cafe,"473 Chulia Street, George Town, Penang Island 10200 Malaysia",1,4.5,22,5.4195471,100.3334761
The Bungalow,"Asian,Malaysian","Lone Pine Hotel, Batu Ferringhi, Penang Island 11100 Malaysia",2,3.5,196,5.4762606,100.2501211
Veloo Villas,"Indian,Asian,Vegetarian Friendly","Penang Lane, George Town, Penang Island Malaysia",1,4,77,5.4182485,100.3407935
"behind 50,love lane","Asian,Malaysian","Love Lane, George Town, Penang Island 10450 Malaysia",2,4.5,39,5.4196538,100.3370036
Daorae Korean BBQ Restaurant,"Barbecue,Asian,Korean","No. 104 Jalan Tanjung Tokong, Penang Island 11200 Malaysia",2,4,64,5.4532034,100.3062818
Potters Place,Cafe,"53 Lebuh Acheen 53,Lebuh Acheh, George Town, Penang Island 10200 Malaysia",2,5,15,5.414506,100.3365233
Ocean Green Seafood Restaurant,Malaysian,"Jalan Sultan Ahmad Shah, George Town, Penang Island Malaysia",2,3.5,221,5.423424,100.3291786
Saigon Bowl,"Asian,Vietnamese,Healthy","20a&B Whiteaways Arcade Lebuh Pantai, George Town, Penang Island 10300 Malaysia",1,4.5,42,5.4177063,100.3423935
Blue Vegan Restaurant,"Asian,Fusion,Healthy","15, Lebuh Tye Sin 3 minutes away from 1st Avenue Mall, 5 minutes from Hin Bus deport & 10 minutes from Penang Ferry, George Town, Penang Island 10300 Malaysia",2,4.5,18,5.4141307,100.3287506
Claypot Restaurant,"Chinese,Asian,Malaysian","48 Jalan Sungei, Tanjung Bungah, Penang Island 11200 Malaysia",2,4.5,30,5.4064445,100.3239158
Nasi Kandar Pokok Ketapang,"Indian,Asian,Malaysian","38 Lorong Hutton, George Town, Penang Island 10050 Malaysia",1,4,43,5.4198059,100.3308227
Bocadillos Restaurant & Bar,"Indian,Asian,Malaysian","98 Lebuh Armenian, George Town, Penang Island 10200 Malaysia",2,5,13,5.4157873,100.3366387
Red Chopsticks,"Chinese,Asian,Thai","Jalan Tun Dr Awang 1-1-5, Ideal Avenue, Penang Island 11900 Malaysia",1,5,15,5.3315901,100.2849354
nada lama,"American,Seafood,International","1 Jalan Bukit Jambul Hotel Equatorial Penang, Bayan Lepas, Penang Island 11900 Malaysia",2,5,16,5.337476,100.2845764
Kedai Makanan Lidiana,"Asian,Malaysian,Vegetarian Friendly","Tanjung Bungah, Penang Island 11200 Malaysia",1,4.5,28,5.467688,100.2880581
No Eyed Deer,"International,Asian,Malaysian","98-1-26 Prima Tanjung, Jalan Fettes, Tanjung Tokong,, George Town, Penang Island 11200 Malaysia",2,4,68,5.4520822,100.3042432
Barry's Cafe,"Italian,Cafe,Asian","27 Lebuh Bishop, George Town, Penang Island 10200 Malaysia",2,4.5,23,5.4183132,100.3419632
Shanur Restaurant,"Indian,Seafood,Middle Eastern","58-B Jalan Batu Ferringhi, Batu Ferringhi, Penang Island 11100 Malaysia",1,5,18,5.4706347,100.2455377
Mizi Bistro,"European,Asian,Malaysian","102-D-6, New World Swatow Lane, George Town, Penang Island 10050 Malaysia",2,4,66,5.4209997,100.3266585
Merlin Hotel Nasi Kandar,"Asian,Malaysian","1A, Lebuh Union Downstairs of Merlin Hotel, Penang Island 10200 Malaysia",1,4.5,35,5.4195227,100.3417162
Kafe Ping Hooi,"Chinese,Asian,Malaysian","Kafe Ping Hooi 179 Carnavon Street, Penang Island 10300 Malaysia",1,4,62,5.4146225,100.334145
Ah Chui Seafood,"Chinese,Seafood,Asian","Ah Chui Seafood Ah Chui Seafood Ah Chui Seafood 1238-T Jalan Paya Terubong, Penang Island 11060 Malaysia",2,4,41,5.387177,100.2748337
TOKMA Malay Kitchen,"Asian,Fusion,Malaysian","249 Lebuh Kimberley, George Town, Penang Island 10100 Malaysia",1,5,13,5.4173473,100.3311575
Roti Bakar Hutton Lane,"Malaysian,Vegetarian Friendly,Vegan Options","300 Jalan Phee Choon, George Town, Penang Island 10050 Malaysia",1,4,40,5.4176913,100.3306234
Bella Italia,"Italian,Pizza,European","Lorong Pulau Tikus, George Town, Penang Island 10350 Malaysia",2,4,90,5.4317313,100.3099536
Leong Kee Tim Sum Restaurant,"Chinese,Asian,Cantonese","61 Lebuh Kimberley, George Town, Penang Island 10100 Malaysia",1,4,38,5.4159043,100.3331415
Minah Restaurant,"Asian,Malaysian,Vegetarian Friendly","Jalan Sultan Azlan Shah Sungai Gelugor, George Town, Penang Island 11700 Malaysia",2,4.5,33,5.3636576,100.3118045
Flip Burger Queensbay Mall,"Quick Bites,American,Fast food","100 Persiaran Bayan Indah 3F-07, 3rd Floor, North Zone, Queensbay Mall, Bayan Lepas, Penang Island 11900 Malaysia",2,5,16,5.3324722,100.3073227
"Kannichikan Yakiniku Restaurant - Tanjung Tokong, Penang","Japanese,Barbecue,Asian","Jalan Tanjung Tokong 1st Floor, Blok 125, George Town, Penang Island 11200 Malaysia",2,4.5,23,5.4561444,100.3079791
B@92 Eat &Drink,"Bar,Asian,Pub","92 Church Street, George Town, Penang Island Malaysia",2,4.5,50,5.4191487,100.3397465
Brussels Beer Cafe,"Belgian,Bar,European","Persiaran Gurney, George Town, Penang Island 10250 Malaysia",2,4,85,5.4344703,100.3148649
Living Room - Macalister Mansion,"Cafe,Deli","228 Macalister Road, George Town, Penang Island 10400 Malaysia",2,4,71,5.4191952,100.3187979
BBQ Nights,"Barbecue,Asian,Middle Eastern","72 D Batu Ferringhi Beach, Penang Island Malaysia",2,4,91,5.4734004,100.2460575
Blue Reef Fish & Chips Straits Quay,"Seafood,Gluten Free Options","Straits Quay, 3A-G-20 Ground Floor, Blue Reef Fish & Chips Straits Quay Jalan Seri Tanjung Pinang 10470 Tanjung Tokong,Penang, Penang Island 10470 Malaysia",2,3.5,151,5.457477,100.313538
Fishing Village Seafood,"Seafood,Asian,Malaysian","756, Mk-2 Telok Bahang, Penang Island 11050 Malaysia",2,4,73,5.4558207,100.2147705
Hai Wei Seafood Restaurant,"Chinese,Seafood,Asian",Penang Island 11300 Malaysia,2,4,26,5.3673161,100.2486493
"Yi Bin, 'The Mansion of Tea Art'","Chinese,Asian,Malaysian","106-C Jalan Hutton, George Town, Penang Island Malaysia",2,5,19,5.4208506,100.3292974
Easy Brew,"Cafe,Vegan Options","145 -147 Beach Street, George Town, Penang Island 10300 Malaysia",2,4,40,5.4147992,100.3389358
Chilli Mee at Prestige,"Chinese,Asian,Malaysian","unit 1, Prestige Hotel Arcade, George Town, Penang Island 10300 Malaysia",2,5,13,5.4165076,100.3427629
Zhu Yuan Vegetarian Restaurant,"Chinese,Asian,Malaysian","90 Jalan Dr Lim Chwee Leong, George Town, Penang Island 10100 Malaysia",2,4.5,57,5.4135945,100.3332345
Fa-laugh-Ely,"Fast food,Middle Eastern","361, Chulia Street Located at The Original Reggae Club, George Town, Penang Island 10200 Malaysia",1,5,16,5.4183867,100.3360174
Gen,"Asian,Contemporary,Diner","Unit 6, 8 Gat Lebuh Gereja, George Town, Penang Island 10300 Malaysia",3,4.5,17,5.4160091,100.3432794
hameediya nasi kandar,"Indian,Asian,Malaysian","Campbell Street, Penang Island Malaysia",1,4,43,5.4174938,100.3347739
Paul Loiis,"Italian,Cafe,Asian","18 Lebuh King, George Town, Penang Island 10200 Malaysia",2,4,32,5.4191367,100.3404481
Kuih Culture,"Chinese,Cafe,Seafood","59A, Lebuh Kimberley, Penang Island 11100 Malaysia",2,4,38,5.4159547,100.3331858
Nyonya Breeze Desire,"Asian,Malaysian","3A-1-7, Straits Quay Jalan Seri Tanjung Pinang Tanjung Tokong,, Penang Island 10470 Malaysia",2,4,28,5.450422,100.307274
Penang Club,Vegetarian Friendly,"Penang Club Penang Club 42B Jalan Sultan Ahmad Shah, Penang Island 10050 Malaysia",2,4.5,28,5.424997,100.3284358
Hudson's Deli,"International,European,Deli","Hudson's Deli 103 Jalan Chan Siew Teong, Tanjung Bungah, Penang Island 11200 Malaysia",2,5,14,5.465591,100.2794366
Chatto - Handcrafted Tea Bar Georgetown,"Chinese,Japanese,Cafe","143, Lebuh Carnarvon, Georgetown, 10100, Penang Located in Georgetown's Heritage Core Zone, George Town, Penang Island 10100 Malaysia",1,4.5,17,5.4152523,100.3350095
The Wine Shops (Penang),Wine Bar,"11A & 15, Lintang Burmah, Penang Island 10250 Malaysia",2,4,37,5.4327263,100.3113565
Santorini Cafe,"Chinese,American,Cafe","94 Jalan Burma, George Town, Penang Island 10050 Malaysia",1,4.5,20,5.4191891,100.3273916
Chin's,"Chinese,Asian,Malaysian","Church Street Pier George Town, Penang Island Malaysia",3,4.5,33,5.41664,100.34413
Heap Seng at 29,"Seafood,British","Number 29, China Street, George Town, Penang Island 10300 Malaysia",2,4.5,14,5.4178403,100.3397443
The Table Penang,"Southwestern,Cafe,Asian","The Table Penang No 27 Carnarvon Street, Penang Island 10100 Malaysia",2,4.5,23,5.4171977,100.3360671
The Line Sandwich Cafe,"Italian,Southwestern,Cafe","239 Jalan Magazine, George Town, Penang Island 10300 Malaysia",2,4.5,14,5.4138946,100.3288195
Pho Viet,"Asian,Vietnamese,Soups","496 Lebuh Pantai Crossing with Beach Street, George Town, Penang Island 10300 Malaysia",1,4,36,5.4122207,100.3345578
Diable Pasta,"Italian,European,Asian","No.4 Kampung Malabar, George Town, Penang Island 10100 Malaysia",2,5,12,5.4188162,100.333541
Wenchang Hainan Chicken Rice,"Chinese,Malaysian","No. 63 Lebuh Cintra, George Town, George Town, Penang Island 10200 Malaysia",1,4,44,5.4172714,100.3333989
The Haven Harbour,"Southwestern,Cafe,International","102-K-1, New World Jalan Burma, George Town, Penang Island 10050 Malaysia",2,4,36,5.42045,100.3269517
Salad Bowl Cafe,"Italian,Chinese,Cafe","79, 56, Jalan Masjid Kapitan Keling George Town, Penang Island 10450 Malaysia",1,4.5,36,5.4176233,100.3381215
Bridge Street Hokkien Mee,"Chinese,Asian","Bridge Street Hokkien Mee 533 Beach Street George Town, Penang Island 10300 Malaysia",1,4.5,15,5.4119777,100.3342154
An Viet,"Asian,Vietnamese,Vegetarian Friendly","An Viet 170 Persiaran Gurney Gurney Plaza, Penang Island 10250 Malaysia",2,4,40,5.4380431,100.3100232
Hainanese Delights,"Asian,Malaysian","1926 Heritage Hotel, George Town, Penang Island Malaysia",2,4,32,5.4238889,100.3205556
Danish Briyani House,"Indian,Middle Eastern,Pakistani","273-B Lebuh Chulia, George Town, Penang Island 10200 Malaysia",2,3.5,108,5.4178082,100.3367864
Beans Heritage,"Asian,Malaysian","Lebuh Carnavon, George Town, Penang Island Malaysia",2,4,52,5.4151022,100.3346246
Kafka Coffee,"Cafe,Asian,Malaysian","15 Jalan Kelawai, George Town, Penang Island 10250 Malaysia",2,4,26,5.4347568,100.3123199
Sushi Zento,"Japanese,Sushi,Asian","Sushi Zento Jalan Tanjong Tokong, Penang Island 10470 Malaysia",2,4,53,5.4491937,100.3064604
Aik Hoe Restaurant,"Chinese,Asian","No.6 & 8 Lebuh Carnavon Georgetown 10100 Penang, Penang Island Malaysia",1,4,32,5.4177724,100.336112
Coffee Island,"Chinese,International,Asian","77 Persiaran Gurney, George Town, Penang Island 11250 Malaysia",2,4,35,5.4330265,100.3160687
d'Tandoor Restaurant Penang,"Indian,Vegetarian Friendly,Halal","10-C-22, Precinct 10 Jalan Tanjong Tokong, Tanjung Tokong, Penang Island 10470 Malaysia",2,4,49,5.4492482,100.3060331
Dandy Modern Food (Arena Curve),"Pizza,International,Mediterranean","72-1-17, Jalan Mahsuri Arena Curve, Bayan Lepas, Penang Island 11950 Malaysia",2,4,35,5.3256576,100.2807164
Janxden Green Life Cafe,"Asian,Vegetarian Friendly,Vegan Options","50, Jalan Chow Thye Road Behind northam towers, George Town, Penang Island 10050 Malaysia",2,4,36,5.4251419,100.3206942
Javu,"Cafe,Fusion,Vegan Options","26, Lebuh Lembah Permai 4, Tanjung Bungah, Penang Island 11200 Malaysia",2,4.5,20,5.454216,100.290494
Dim Sum Food Restaurant,"Chinese,Asian","10400 63 Macalister Road, George Town, Penang Island 11300 Malaysia",1,4,30,5.4156149,100.3247498
23 lovelane,French,"23lovelane, George Town, Penang Island Malaysia",2,4.5,23,5.4196961,100.3372249
Idealite Wholesome Dining Restaurant,"Asian,Healthy,Malaysian","Lebuh Tunku Kudin 2 Lot 1-01-05, Ground Floor, E-Gate, Penang Island 11700 Malaysia",2,4,38,5.375986,100.3153234
Lunarich,"Italian,Pizza,European","LOT 2.33, LEVEL 2 GURNEY PARAGON MALL, George Town, Penang Island 10250 Malaysia",2,4,39,5.4357359,100.311185
Nan Guang Penang Laksa @ Balik Pulau,"Chinese,Asian,Nonya/Malaysian","67 Jalan Balik Pulau Nan Guang Coffe Shop, George Town, Penang Island 11000 Malaysia",1,4,24,5.398822,100.2703446
Chinese Recreation Club Restaurant,"Chinese,Asian,Cantonese","Jalan Padang Victoria, George Town, Penang Island 10400 Malaysia",2,4,34,5.4229756,100.3196829
Kim's Korean Food,"Barbecue,Asian,Korean","Kim's Korean Food Kim's Korean Food 2 Jalan Tavoy, Penang Island 10050 Malaysia",2,4.5,22,5.4237334,100.321825
Original Penang Kayu Nasi Kandar,"Indian,Asian,Malaysian","15, Lebuh Nipah, 11900 Bayan Lepas, Pulau Pinang, Malaysia, Penang Island Malaysia",2,3.5,21,5.3396806,100.296188
Chili Head Social Bar & Eatery,"Asian,Thai","3A-G-11 & 12, Straits Quay, Jalan Seri Tanjung Pinang Seri Tanjung Pinang Tanjung Tokong, Tanjung Tokong, Penang Island 10470 Malaysia",2,4,42,5.4570469,100.3139403
Restoran Khun Thai,"Seafood,Asian,Thai","1052 Mk 9 Teluk Kumbar, Bayan Lepas, Penang Island 11920 Malaysia",2,3.5,59,5.2909769,100.2497952
Jade Palace Seafood Restaurant,"Chinese,Seafood,Asian","3rd Floor No. 41 Lorong Abu Siti, George Town, Penang Island 10400 Malaysia",2,4,26,5.4180138,100.3238096
D'Chef,Vegetarian Friendly,"Lebuh Presgrave, George Town, Penang Island 10300 Malaysia",3,4,28,5.4111395,100.3303959
Ah Leng Char Koay Teow,"Asian,Malaysian","Lorong Zoo 6 Ayer Itam, George Town, Penang Island 11500 Malaysia",1,4.5,12,5.4025898,100.2843497
Chai Diam Ma,"Cafe,Vegan Options","15 Lebuh Queen 10200 George Town, Penag, George Town, Penang Island 10200 Malaysia",2,4,23,5.4184764,100.3395601
Nana Tomyam,"Thai,Malaysian,Vegetarian Friendly","6 A Jalan Transfer, George Town, Penang Island 10050 Malaysia",,4,17,5.4228261,100.3310858
Baba Phang,"Asian,Malaysian","17 Jalan Sri Baharu, George Town, Penang Island Malaysia",2,4.5,17,5.4144241,100.3261358
Hong Xiang Bak Kut Teh,"Chinese,Malaysian","88, Jalan Macalister, Penang Island Malaysia",2,3.5,46,5.4151977,100.3267449
Swatow Lane Ice Kacang,"Chinese,Asian,Malaysian","102-E-1Burma Road New World Park, George Town, Penang Island 10050 Malaysia",1,4.5,19,5.42045,100.3269517
Flower Mulan Nyonya Cafe,"Asian,Malaysian","268 Jalan Burmah Pulau Tikus, George Town, Penang Island 10350 Malaysia",2,4.5,13,5.4312447,100.3123532
Xiang Peng Peng Salted Chicken,"Asian,Healthy,Soups","208B Macalister Road Same row with Happy Mart, Near Red Rock Hotel and Travelodge Hotel, George Town, Penang Island 10400 Malaysia",1,4.5,18,5.4141307,100.3287506
Dragon-I,"Chinese,Asian,Shanghai","100, Persiaran Bayan Indah Queensbay Mall, Bayan Lepas, Penang Island 11900 Malaysia",2,3.5,50,5.3331774,100.3066084
4Fingers,,"163-D Persiaran Gurney Gurney Paragon Mall, 163D-1-06, Penang Island 10250 Malaysia",2,4.5,12,5.4357359,100.311185
Nurul Ikan Bakar,"Seafood,Asian,Malaysian","Jalan Tun Dr Ismail Bayan Lepas Industrial Park 4, Bayan Lepas, Penang Island 11900 Malaysia",2,4,24,5.3071484,100.2882911
Kedai Kopi Sin Hwa,"Asian,Malaysian","329 Jalan Burmah, George Town, Penang Island Malaysia",1,4,30,5.4306979,100.3124847
The Eatery,"International,Asian,Malaysian","505 Jalan Tanjung Bungah Located Inside the Four Points by Sheraton Hotel, Tanjung Bungah, Penang Island 11200 Malaysia",2,4,42,5.4637784,100.3017774
La Vie en Rose Patisserie,"Dessert,French,Cafe","19 Lebuh Melayu, George Town, Penang Island 10100 Malaysia",2,4.5,17,5.4132033,100.3353064
Olivia?????s Pasta & Pizza,"Italian,Pizza,Spanish","17A Lebuhraya Batu Lanchang, George Town, Penang Island 11600 Malaysia",2,5,11,5.395378,100.2996431
My Voice Cafe,"Japanese,Asian","C-5-1, Lorong Bayan Indah 3, Bay Avenue, Bayan Lepas, Penang, George Town, Penang Island 11900 Malaysia",2,4,36,5.3375605,100.3070718
Bee Hooi Restaurant,"Asian,Malaysian","Bee Hooi Restaurant Jalan Burma Pulau Tikus, Penang Island 10350 Malaysia",1,4,32,5.432224,100.310134
Passion of Kerala,"Indian,Asian,Malaysian","Gelugor, George Town, Penang Island Malaysia",2,4,59,5.369118,100.3096991
QEII The Waterfront Venue,"Italian,Bar,Pizza","8A Pengkalan Weld, George Town, Penang Island Malaysia",2,4,52,5.4150544,100.3433425
Dragon-i - Gurney Plaza,"Chinese,Asian,Shanghai","George Town, Penang Island Malaysia",2,3.5,70,5.4141307,100.3287506
Kedai Kopi New Cathay,"Chinese,Asian,Malaysian","425 Jalan Burma, George Town, Penang Island 10350 Malaysia",1,4,20,5.4322458,100.3098434
Fuku Eatery,Contemporary,"Lebuh Pantai 103, George Town, Penang Island Malaysia",2,4.5,11,5.4154744,100.3397858
Enoshima Japanese Restaurant,"Japanese,Sushi,Asian","Cititel Express Penang, 123 Lebuh Noordin, Komtar, George Town, Penang Island 10300 Malaysia",2,4,20,5.4125588,100.3297294
Gooday Restaurant,"Chinese,Asian,Malaysian","2-J Jalan Lembah Permai Tanjong Bungah, Penang Island 11200 Malaysia",2,4.5,17,5.464587,100.280209
Pinang Restaurant & Bar,"Bar,International","Jalan Batu Ferringhi, Batu Ferringhi, Penang Island 11100 Malaysia",2,3.5,59,5.477061,100.2533085
O.M.G Restaurant Penang,"Italian,Fusion,Malaysian","30, Jalan Servis, Georgetown, Penang Island 10050 Malaysia",1,5,9,5.4256131,100.3203481
Roti Canai,"Asian,Malaysian,Vegan Options","Jalan Argyll, George Town, Penang Island 10050 Malaysia",1,4,27,5.4225633,100.327842
Happy Garden Restaurant Batu Ferringhi Penang,Chinese,"Happy Garden Restaurant Batu ferringhi.penang 206 B Batu Ferringhi, Penang Island 11100 Malaysia",,4.5,13,5.468622,100.2441159
Something Else,"Bar,Pub","72a-G Persiaran Mahsuri 2, Bayan Lepas, Penang Island 11950 Malaysia",2,4.5,13,5.3264584,100.2799613
More by Arang Coffee,"Cafe,Vegetarian Friendly,Vegan Options","170-G Argyll Road Livingston Tower, George Town, Penang Island 10050 Malaysia",2,4,20,5.4222231,100.3297737
AL-Baiek,"Barbecue,Middle Eastern,Pakistani","Jalan Batu Ferringi Infront Of Hard Rock Hotel, Batu Ferringhi, Penang Island 11100 Malaysia",,4,17,5.4646111,100.2396295
Annalakshmi Temple of Fine Arts,"Indian,Asian,Vegetarian Friendly","1 Lebuhraya Babington, George Town, Penang Island 10450 Malaysia",1,4.5,17,5.4181546,100.3142055
Ali Nasi Lemak,"Quick Bites,Asian,Malaysian","Beach Street Medan Makan Sri Weld, George Town, Penang Island 10300 Malaysia",1,4,33,5.4175551,100.3432695
Hans Cafe and Deli,Cafe,"Jalan Seri Tanjung Pinang Tesco, Tanjung Tokong, Penang Island 10470 Malaysia",2,4.5,12,5.4589372,100.3087485
Zealand Seafood Restaurant,"Chinese,Asian,Malaysian","62 Persiaran Gurney, George Town, Penang Island 10250 Malaysia",2,4.5,15,5.4322075,100.317373
Leilomei by Manchu,"Chinese,Bar,Cafe","38 & 40, Jalan Pintal Tali,, George Town, Penang Island 10100 Malaysia",2,5,7,5.4177948,100.3348709
Maroush,"Indian,Middle Eastern,Arabic","Lot 396 11100 Batu Ferringhi Road Lot 396 Batu Ferringhi, Penang Island 11100 Malaysia",2,3.5,45,5.4746493,100.249259
Ayu Mee Udang,,,2,4,15,,
Pang Hainan Seafood,"Chinese,Seafood,Asian","12 Jalan Tanjong Bungah, Penang Island Malaysia",2,3.5,63,5.466036,100.2893935
Ajid Cafe,"Cafe,Asian,Malaysian","Jalan Tanjung Bungah Palau Pinang, MY, Batu Ferringhi, Penang Island 11100 Malaysia",,5,9,5.4763508,100.2522955
Abu,"Indian,Asian,Malaysian","Jalan Datuk Koyah, George Town, Penang Island Malaysia",1,4,15,5.4198895,100.3316024
Nonya Breeze,"Asian,Nonya/Malaysian,Malaysian","Straits Quay West, Penang Island Malaysia",2,4,21,5.4580314,100.3133518
Tokma Malay Kitchen,,"6 Jalan Tanjong Tokong, George Town, Penang Island 10470 Malaysia",1,5,7,5.4470925,100.3063583
IPPUDO Gurney Plaza,"Japanese,Asian","170-G-37, Ground Floor, Gurney Plaza Gurney Plaza Penang, George Town, Penang Island 10250 Malaysia",2,4,25,5.4287817,100.3207271
Middle of Nowhere,"Malaysian,Asian","202-B Jalan Sungai Pinang, Penang Island 11010 Malaysia",,4.5,11,5.3523829,100.2301666
Lao Hakka Restaurant,Chinese,"562 Jalan Tanjung Bungah, George Town, Penang Island 11200 Malaysia",2,4,13,5.4628155,100.3049555
ET Steamboat Restaurant,Chinese,"Jalan Rangoon, George Town, Penang Island Malaysia",2,4.5,9,5.4183332,100.3248813
Fruit of Lebanon,"Lebanese,Mediterranean,Middle Eastern","109-A Jalan, Batu Ferringhi, Penang Island 11100 Malaysia",2,3.5,57,5.4687073,100.2430904
Sushi Kitchen,"Japanese,Sushi,Asian","2A-1, Jln.sg.Ara,Desa Ara,Sg.Ara, George Town, Penang Island 11900 Malaysia",2,4.5,14,5.4061852,100.3236844
Kim Gary Restaurant,"Asian,Malaysian,Vegetarian Friendly","170-03-60A / 61 / 63A / 65 / 66, Plaza Gurney, Persiaran Gurney, Penang Island 10250 Malaysia",2,4,22,5.4390504,100.3098713
Botanica Mansion,,"156 Jalan Sungai Bandar Baru Air Putih, Balik Pulau, Penang Island 11000 Malaysia",2,4,17,5.3517558,100.2318663
Club J,"Japanese,European,Fusion","344 Lorong Leandros, George Town, Penang Island 10250 Malaysia",2,4.5,10,5.433487,100.3107358
Wooden House Cafe,"American,Cafe,Asian","No.1, Chew Jetty Weld Quay, Penang Island 10300 Malaysia",1,4.5,9,5.4113819,100.3408166
Lorong Selamat Food Stalls,"Asian,Malaysian","off Jln Burma Chinatown, George Town, Penang Island Malaysia",1,3.5,153,5.426639,100.317161
Daily Fish Restaurant,"Chinese,Seafood,Asian","Daily Fish Restaurant Daily Fish Restaurant Daily Fish Restaurant 288e-1-13 Jalan Thean Teik Fortune Court, Ayer Itam, Penang Island 11500 Malaysia",2,4.5,14,5.3983323,100.2941051
Sushi Kappo Miyasaka,"Japanese,Sushi","397 Jalan Burma, George Town, Penang Island 10350 Malaysia",2,4.5,12,5.4317626,100.3112319
Nyonya Willow,"Chinese,Asian,Malaysian","45 Lorong Sungai Tiram 4 Taman Tunas Damai, Bayan Lepas, Penang Island 11900 Malaysia",2,4,22,5.3028623,100.2702618
Cafe Laurel,"Asian,Vegetarian Friendly,Halal","53 Persiaran Gurney Evergreen Laurel Hotel Penang, George Town, Penang Island 10250 Malaysia",2,4,29,5.4311833,100.3178872
Wang Thai,"Asian,Thai","294, Jalan Burma Pulau Tikus, George Town, Penang Island 10350 Malaysia",2,3.5,39,5.4320211,100.3116142
Umi Japanese Restaurant,"Japanese,Sushi","28 Jalan Teluk Kumbar Lexis Suites Penang, Bayan Lepas, Penang Island 11920 Malaysia",2,4.5,13,5.2871563,100.2329248
The Mangoes Cafe,"Fusion,Cafe","496 Lebuh Pantai End of Beach Street, Close to Komtar/ 1st Avenue Junction, George Town, Penang Island 10300 Malaysia",,4.5,17,5.4145872,100.3297474
Alley Catz Cafe,"Italian,Cafe,Fast food","133, Jalan Masjid Kapitan Keling George Town, Penang Island 10400 Malaysia",2,5,9,5.4157212,100.3373784
Escobar Wine & Deli,"Bar,Deli,Grill","138 Jalan Pintal Tali Ropewalk Piazza, George Town, Penang Island 10100 Malaysia",2,4,18,5.4155095,100.3324666
Plan b,Cafe,"Persiaran Gurney Gurney Paragon, George Town, Penang Island 10250 Malaysia",2,4,14,5.4357359,100.311185
Shusi Banana Leaf Restaurant,"Indian,Asian,Malaysian","71A Penang Street, George Town, Penang Island 10200 Malaysia",1,3.5,26,5.4171387,100.3402709
London Duck Gurney Plaza,"Chinese,Asian,Cantonese","Gurney Plaza 170-03-86 Persiaran Gurney, Penang Island 10250 Malaysia",2,4,12,5.4380431,100.3100232
Indian Palace,"Indian,Asian,Vegetarian Friendly","No 79-G-18 Penang Time Square Jalan Dato Kerama, George Town, Penang Island 11950 Malaysia",2,4,45,5.412176,100.3256387
JiangHu Edo Penang,Fusion,"69, Jalan Magazine, Penang Island 10100 Malaysia",2,4.5,8,5.4123518,100.331958
Noordin Nyonya Delights,"Chinese,Fast food,Asian","138c Lebuh Noordin, George Town, Penang Island 10300 Malaysia",1,5,6,5.4123687,100.3294634
Stardust,Cafe,"370D Lebuh Chulia Chinatown, George Town, Penang Island Malaysia",1,4,26,5.419233,100.334835
Charlie's Burgers,Fast food,"11100 Batu Feringgi, Batu Ferringhi, Penang Island Malaysia",1,4.5,14,5.47124,100.246491
Banh Mi Kitchen,"Cafe,Fast food,Asian","86, Jalan Zainal Abidin 10400 Pulau Pinang Behind UMNO Building, George Town, Penang Island 10400 Malaysia",1,5,5,5.4164676,100.325002
Siang Pin,"Chinese,Seafood,Asian","No. 598 Gf Jalan Tanjung Bunga, Penang Island 11200 Malaysia",2,4,26,5.4651804,100.2935468
Brix and BAUME,International,"124 Jalan Burma, George Town, Penang Island Malaysia",2,5,8,5.4208502,100.3254828
Jit Seng Hong Kong Roast Duck Rice,"Chinese,Asian","Star Hotel 246, Lebuh Carnarvon, George Town, Penang Island 10100 Malaysia",1,4,29,5.4144786,100.3334099
Fisherman's Wharf Food Corner Penang,"Chinese,Japanese,Indian","No 92A Lebuh Sungai Pinang 1, George Town, Penang Island 11600 Malaysia",1,3.5,26,5.3969205,100.3270539
Chu Char 1st,"Asian,Malaysian,Chinese","15, Lebuh King, 10200 Georgetown Penang, Malaysia, George Town, Penang Island 10200 Malaysia",,5,4,5.4184401,100.3402999
Kannaa's Bamboo Masala Beriyani Penang,Indian,"72, Lebuh China,, George Town, Penang Island 10020 Malaysia",1,4.5,9,5.4182478,100.3393737
Texas Chicken,"Quick Bites,American,Fast food","182 Jalan Magazine First Avenue Mall, George Town, Penang Island 10300 Malaysia",2,4,20,5.4130454,100.3311692
Blue Chang MODERN THAI CUISINE,"Asian,Thai","417, Jalan Burma Behind CIMB & Hong Leong Bank Pulau Tikus, Penang Island 10350 Malaysia",2,4,12,5.4317314,100.3104352
Mr.Pot,"Bar,Cafe,Pub","124c Gurney Drive, George Town, Penang Island Malaysia",2,4,23,5.4351081,100.3139511
Waterworld Seafood Restaurant,"Seafood,Malaysian,Chinese","72 Jalan Batu Ferringhi I Love You Cafe, Penang Island 11100 Malaysia",,4.5,11,5.475054,100.2494679
Goodall Cafe,"Chinese,Asian,Malaysian","Jalan Gottlieb, George Town, Penang Island 10350 Malaysia",1,3.5,26,5.431995,100.3013731
See Kong Ooi Restaurant,"Chinese,Asian,Malaysian","7 & 9 Jalan Transfer, George Town, Penang Island 10050 Malaysia",2,4,29,5.4221967,100.3314328
The Ship Batu Ferringi,"Steakhouse,Asian","69-B Jalan Batu Ferringhi 11100, Batu Ferringhi, Penang Island 11100 Malaysia",2,3,576,5.473907,100.247484
The Nook Books and Coffee,"Asian,Malaysian","4 Halaman Khoo Cheow Teong, George Town, Penang Island 10100 Malaysia",1,4.5,9,5.413044,100.3347692
Hassan Briyani House,"Indian,Middle Eastern,Pakistani","198,Jalan Transfer, Penang Island 10050 Malaysia",1,5,6,5.4190581,100.3297489
Curry & Co,"Indian,Asian,Malaysian","11 Jalan Ismail Nagore, Penang Island 10050 Malaysia",2,4,13,5.366513,100.3117055
Pulau Tikus Hawker Centre,,"Jalan Burma Pulau Tikus, George Town, Penang Island 10350 Malaysia",1,4,11,5.4299666,100.3131688
C&J Alabama Shake,American,"90 Church Street, George Town, Penang Island 10200 Malaysia",2,4.5,10,5.4191094,100.3396981
Cintra Street Fish and Chicken Porridge,,"Lebuh Cintra, George Town, Penang Island 10450 Malaysia",1,5,5,5.4177819,100.3335161
"Khun De Thai Restaurant, Gurney Drive","Asian,Thai","75 Gurney Drive at entrance to Gurney View Hotel, Penang Island 10250 Malaysia",2,4,16,5.4406351,100.3089986
Victoria Green Corner,"Chinese,Asian,Malaysian","43 Jalan Padang Victoria, George Town, Penang Island 10400 Malaysia",2,4.5,8,5.4221679,100.3211812
Cho Dong Jib,"Asian,Korean","163-D Persiaran Gurney Gurney Paragon Mall Lot No. L1.05, George Town, Penang Island 10250 Malaysia",2,4,11,5.4357359,100.311185
Maxim Dim Sum,"Chinese,Asian,Cantonese","Bangunan Lip Sin 2-G-11 & 12 Lebuh Pekaka 1, Sungai Dua, Gelugor, Penang Island 11700 Malaysia",2,4,17,5.3488804,100.2956636
Golden Gate Steamboat,Seafood,"No. 77 Jalan Cantonment, George Town, Penang Island 10250 Malaysia",2,4,16,5.4349509,100.313241
Roti Canai Gemas Road,"Asian,Street Food,Malaysian,Indian","29 Gemas Road Taman Kampar, Penang Island 10460 Malaysia",,4.5,7,5.4092692,100.309679
Village Fish Head Bee Hoon,"Seafood,Diner,Central Asian,Chinese","107A, Pengkalan Weld, George Town, Penang Island 10300 Malaysia",,4.5,8,5.4112604,100.3370824
Yuraku Tei Japanese Cuisine,"Japanese,Japanese sweets parlour,Japanese Fusion","Vantage B-3-3A Jalan Desiran Tanjung, Tanjung Tokong, Penang Island 10470 Malaysia",2,5,5,5.4570605,100.3093039
Kampar Fish Jelly Restaurant,"Chinese,Asian","66 7 68 Jalan Aziz Ibrahim 11900 Bayan Lepas, Penang Island Malaysia",2,4,10,5.3394487,100.3042777
Campur,"French,Chinese,Asian","16 Jalan Armenian, George Town, Penang Island 10300 Malaysia",2,4.5,8,5.4150347,100.3380252
Aunty Anne True Penang Cuisine,Nonya/Malaysian,"67 Macalister Lane, George Town, Penang Island Malaysia",1,4.5,10,5.4162216,100.32812
Annabelle's  place,"Cafe,British","10 Lebuh Lembah Permai 4, Tanjung Bungah, Penang Island 11200 Malaysia",2,4,13,5.454826,100.290447
Viapre Penang,Italian,"20E Lebuh Penang, Penang Island 10200 Malaysia",,5,6,5.419317,100.341356
Sushi Kitchen Farlim,Italian,,,,0,,
Loaf U,"Asian,Korean,Malaysian","22 Lebuh Melayu, Penang Island 10100 Malaysia",1,4.5,7,5.4131823,100.3355257
BeAngels Specialty Coffee,,,1,,0,,
Beangels Coffee Esplanade,"Italian,Chinese,Southwestern","Jalan Padang Kota Lama Pusat Bayaran Setempat, Penang Island 10200 Malaysia",1,4.5,6,5.4215084,100.3413823
AB Cafe,,,1,,0,,
Java Tree,"European,Asian","10, Lebuh Farquhar Eastern & Oriental Hotel, George Town, Penang Island 10200 Malaysia",2,5,5,5.4231701,100.3357086
Coconut Man,"Healthy,Street Food","48 Armeniam Street, George Town, Penang Island 10200 Malaysia",1,4.5,7,5.4151338,100.33747
Habanero Mexican Dining,Mexican,"3F-22D Queensbay Mall 100 Persiaran Bayan Indah, 11900, Bayan Lepas, Penang Island Malaysia",2,4,17,5.3331774,100.3066084
The Chambers Restaurant,,"No. 2 Penang Street 2nd Floor, George Town, Penang Island 10200 Malaysia",2,4,17,5.420158,100.341706
Pitt Street Koay Teow Th'ng (Eel Fish Ball Noodle),"Chinese,Asian","Carnarvon Street, George Town, Penang Island Malaysia",1,4.5,7,5.4180061,100.336227
Little Oasis,"International,Asian,Malaysian","33-03-35, Prangin Mall, George Town, Penang Island Malaysia",2,4,12,5.414683,100.331112
Peppersalt Restaurant,American,"No 27 & 29 Lorong Amoy, George Town, Penang Island 10050 Malaysia",,4.5,7,5.4216802,100.3286265
Muse Dining Bar by R.Emuang,American,,,,0,,
Kitchen Chemistry,"Italian,American,Asian","8 Solok Kampung Jawa, Penang Island 11900 Malaysia",2,4.5,8,5.325935,100.2952633
Teluk Kumbar Seafood Restaurant,"Seafood,Asian,Malaysian","84 MK9 Teluk Kumbar, Bayan Lepas, Penang Island 11920 Malaysia",2,4,14,5.2847094,100.2396849
Adnan Bin Hassan,Seafood,"Jalan Teluk Tempoyak Kampung Teluk Tempoyak Besar, Bayan Lepas, Penang Island Malaysia",2,4.5,7,5.2764169,100.2871129
Restoran Mohammed Raffee Nasi Kandar,,,2,,0,,
Fatty loh chicken rice,"Chinese,Malaysian","Jalan Fettes, Tanjung Tokong, Penang Island Malaysia",2,3.5,65,5.4521819,100.3036368
K-POT,"Asian,Korean","98-G-33 prima Jalan Tanjung Tokong, Penang Island 11200 Malaysia",2,4,15,5.4561444,100.3079791
nadaba,"Bar,Pizza,International","1 Jalan Bukit Jambul Hotel Equatorial Penang, Bayan Lepas, Penang Island 11900 Malaysia",2,4,9,5.337476,100.2845764
Kim's Korean Food Buffet,"Asian,Korean","72-1-59, 58, 57, Arena Curve Jalan Persiaran Mahsuri, Bayan Lepas, Penang Island 11950 Malaysia",2,4.5,7,5.3256576,100.2807164
Hao You Seafood,"Seafood,Asian,Malaysian","Teluk Kumbar 84, MK9 , Teluk Kumbar, Bayan Lepas, Penang Island 11920 Malaysia",2,3.5,37,5.2865731,100.235652
Seoul Garden,"Barbecue,Asian,Korean","Sunrise Tower, George Town, Penang Island Malaysia",2,4,12,5.4398544,100.3084406
Mekong Vietnamese Restaurant,Vietnamese,"Mekong Vietnamese Restaurant 403 Jalan Burmah, Penang Island 10350 Malaysia",2,4.5,8,5.4318238,100.3110806
Canton-i,"Chinese,Asian,Cantonese","Queensbay Mall - JMB, Lot 1F-78, Queensbay Mall 100 Persiaran Bayan Indah, Bayan Lepas, Penang Island Malaysia",2,3.5,68,5.3331774,100.3066084
Go Noodle House,"Chinese,Asian,Malaysian","100 Persiaran Bayan Lot 3F-01, Level 3 Queens Street , Queensbay Mall, Penang Island 11900 Malaysia",2,4,8,5.3331774,100.3066084
BBQ Plaza,"Barbecue,Asian","Gurney plaza 170-06-01 Persiaran Gurney,, George Town, Penang Island Malaysia",2,3.5,21,5.4380431,100.3100232
Al Aziz Briyani House,"Indian,Pizza,Middle Eastern","58-B Jalan Batu Ferringh, Batu Ferringhi, Penang Island 11100 Malaysia",1,5,5,5.4706347,100.2455377
Rang8,"Chinese,Japanese,Southwestern","149, Jalan Masjid Kapitan Keling, George Town, Penang Island 10200 Malaysia",1,4.5,7,5.4154927,100.3371631
Pizzaiola,"Italian,Pizza,Vegetarian Friendly","33-SB-01 Prangin Mall, Jalan Dr Lim Chwee Leong Lot 33, George Town, Penang Island 10450 Malaysia",2,3.5,23,5.414569,100.332346
Syed Bistro,"Indian,Asian,Middle Eastern","76 Jalan Mahsuri Bandar Sunway Tunas, Bayan Lepas, Penang Island 11950 Malaysia",2,3.5,26,5.3269747,100.2797969
Shan Cheng Durian Penang,Street Food,"748B, MK6 Pondok Upih, 11000 Balik Pulau, Penang, Balik Pulau, Penang Island 11000 Malaysia",2,4.5,9,5.331708,100.2254602
BoraBora Georgetown Beach Bistro and Guesthouse,"Bar,Pizza,Cafe","515 Jalan C M Hashim Tanjung Bunga, George Town, Penang Island 11200 Malaysia",2,4,15,5.4638719,100.3058109
Sugar on Top,Fusion,"No.21, Jalan Bawasah, George Town, Penang Island 10050 Malaysia",,4,11,5.4214421,100.3258442
Tasty  Toasty,"Malaysian,Asian","52 Jalan Cantonment, George Town, Penang Island 10350 Malaysia",,4.5,8,5.4311944,100.3117614
Gurney ABC Hawker,"Asian,Malaysian","Gurney drive, George Town, Penang Island Malaysia",1,3.5,60,5.4344703,100.3148649
Spicy Lemak,"Asian,Malaysian","278 Lebuh Pantai, George Town, Penang Island 10300 Malaysia",1,4,9,5.4142904,100.3381711
J.L Gourmet Cafe,,"Jalan Dr Lim Chwee Leong 33-3-09, Prangin Mall, George Town, Penang Island Malaysia",2,4.5,12,5.414164,100.331734
Insider Cafe Lounge,"Pizza,Cafe,Spanish","36 Lebuh Gereja, George Town, Penang Island 10200 Malaysia",2,4,11,5.4180657,100.3413349
Ali Capati Corner,Indian,"Lebuh Pasar, George Town, Penang Island 10200 Malaysia",1,4,10,5.4171471,100.3393965
Wong Chau Jun Restaurant,"Chinese,Asian,Soups","77 Jalan Rangoon, George Town, Penang Island Malaysia",2,4,24,5.4169163,100.3240796
Yin's WholeFood Manufactory,,"5-G-17, Promenade Persiaran Mahsuri, Bayan Lepas, Penang Island 11950 Malaysia",2,3.5,18,5.3247107,100.2825698
Omar Al-Khayyam Restaurant,"Lebanese,Middle Eastern,Vegetarian Friendly","66 Jalan Batu Feringghi Next to D'Ferrenhi Hotel, Batu Ferringhi, Penang Island Malaysia",2,4,20,5.474304,100.249112
WhatSaeb Boat Noodle,"Thai,Street Food","173 Lebuh Carnavon, George Town, Penang Island 10100 Malaysia",1,4.5,6,5.4147299,100.334323
Balik Kampung at Balik Pulau,"Chinese,Seafood,Asian","278 MK D, Kuala Jalan Baharu, Balik Pulau, Penang Island 11000 Malaysia",2,4,13,5.35325,100.20187
Isaribi Tei,"Japanese,Sushi,Asian","Isaribi Tei Isaribi Tei 62 Jalan Chow Thye, Penang Island 10050 Malaysia",2,3.5,30,5.4246041,100.3204505
Sushi Zanmai - Gurney Paragon Mall,"Japanese,Sushi,Asian","163d-6-36, Level 6, Gurney Paragon Mall Persiaran Gurney, George Town, Penang Island 10250 Malaysia",2,3.5,55,5.4357359,100.311185
Amber Chin Kitchen,"Chinese,Pizza,Wine Bar","147-149 Jalan Hutton Hutton Mansion, Penang Island 10050 Malaysia",1,4.5,7,5.4208076,100.3288496
Caze by Buu's Kitchen,"Italian,Southwestern","10A Lebuh King, George Town, Penang Island 10200 Malaysia",2,4.5,7,5.4195454,100.3407222
Arabica Estate,"Italian,Cafe,Asian","29D-3-3A, 11600 Maritime Suite Persiaran Karpal Singh, George Town, Penang Island 11600 Malaysia",1,4.5,10,5.3984454,100.3290469
Kitch Garden Cafe,"Asian,Malaysian,Caf??","No. 58, Jalan Rangoon, George Town, Penang Island 10400 Malaysia",,5,4,5.4181297,100.3244977
Trois Canon Cafe,"Chinese,Cafe,Asian","165 Campbell Street, George Town, Penang Island 10100 Malaysia",1,3.5,39,5.4183959,100.3325
43 Cafe,"American,Fast food,Asian","43 Jalan Sungai Dua, Penang Island 11700 Malaysia",1,4.5,10,5.3532242,100.3038182
Feng Yi Dumplings,,,1,,0,,
Kenko,"Japanese,Cafe,Fast food","94 Jalan Lim Lean Teng, George Town, Penang Island 11600 Malaysia",1,5,4,5.405338,100.306709
77 Food Yard,"Malaysian,Asian","Cnr Burmah Road & Solok Moulmein, George Town, Penang Island Malaysia",,4.5,7,5.4304867,100.312769
Ximending Taiwan Style Restaurant,"Chinese,Asian,Fusion","Ximending Taiwan Style Restaurant 79 & 81 Lebuh Bishop, Penang Island 10200 Malaysia",2,4,13,5.3673161,100.2486493
Cloud Dreaming,Fusion,"15, Lebuh Tye Sin, George Town, Penang Island 10300 Malaysia",1,4,11,5.4096746,100.3307899
Big Ben George Town,"Cafe,British","83 Bishop Street, George Town, Penang Island 10200 Malaysia",1,4.5,9,5.4190572,100.3407896
Krung Thep,Thai,"No. 118 Lorong Selamat, George Town, Penang Island 10450 Malaysia",,4.5,6,5.4166808,100.3243223
Tong Seng Hainanese Chicken Rice,Chinese,"406 Jalan Penang, George Town, Penang Island Malaysia",2,4,11,5.4157265,100.3291345
Rustic Woods,"Italian,American,Bar","89, Muntri Street., Penang Island 10200 Malaysia",1,4.5,7,5.4201704,100.3348581
Palace D' India,"Indian,Seafood,International","69G, King Street Esplanade, George Town, Penang Island 10200 Malaysia",3,4.5,5,5.4192358,100.3406991
Seng Seng Heang,"Malaysian,Asian","613-D Jalan Pasar, Air Itam, Penang Island Malaysia",,5,5,5.4013807,100.2762472
Ming Xiang Tai,Chinese,"No. 26, Lebuh Armenian, Penang Island Malaysia",2,4,10,5.4150109,100.3378825
Sany Char Kuey Teow,"Malaysian,Asian","4 Lorong Mahsuri 2 Near Sunrise Shopping Centre, Bayan Lepas, Penang Island 11900 Malaysia",,4,8,5.294464,100.2593272
Over the Rainbow,"Contemporary,Cafe","2-G-22, Medan Rajawali Solaria Residences, Bayan Lepas, Penang Island Malaysia",,5,4,5.3006535,100.2659777
Matcho Cafe,"Fast food,Asian,Deli","99B, Lebuh Noordin, Penang Island 10300 Malaysia",1,5,4,5.4122247,100.330414
Copthorne Terrace Bay Restaurant,European,"Tanjung Bungah, Penang Island Malaysia",2,3.5,32,5.465118,100.2822098
Tavern in the Park,Cafe,"125 Jalan Timah Inside Hin Bus Depot Art Centre, George Town, Penang Island 10150 Malaysia",2,3.5,19,5.4122027,100.3281352
Corner Keng,"Chinese,Bar,Cafe","10-B-02 Precinct 10, Jalan Tanjung Tokong,, Tanjung Tokong, Penang Island 10470 Malaysia",2,4,15,5.4492482,100.3060331
"Friendscino Pulau Tikus, Penang","European,Wine Bar","Friendscino Pulau Tikus, Penang 19 Lintang Burma Pulau Tikus, Penang Island 10250 Malaysia",2,4.5,7,5.4329021,100.3114428
Pak Mat Western,"Steakhouse,Cafe,Asian","Simpang Tiga Juru, Simpang Ampat, Penang Island 14000 Malaysia",1,4,12,5.317738,100.441347
Test Kitchen,"Asian,Contemporary,Malaysian","105 Lebuh Noordin, George Town, Penang Island 10300 Malaysia",2,5,5,5.4119831,100.3301979
Home Cafe Penang,Cafe,"Home Cafe Penang 18 Jalan Pakawali, Tanjung Bungah, Penang Island 11200 Malaysia",,5,3,5.4645874,100.2920856
Oriental Red Seafood Market,Seafood,"Jalan Perusahaan Jelutong 2 No 28, Fortune Park, Jelutong, Penang Island 11600 Malaysia",,4.5,7,5.3956834,100.3240731
Rockstarz Burger Ayer Itam/Greenlane,Seafood,,,,0,,
Snow Story,Japanese,"18 Lebuh Keng Kwee, George Town, Penang Island 10100 Malaysia",1,4.5,6,5.4169776,100.3311297
Teow Chew Meng,"Asian,Chinese","Lorong Selamat, George Town, Penang Island Malaysia",,4,13,5.4179759,100.3254939
Eam Huat Charcoal Steamboat,Asian,"7, Medan Penaga, Batu Lanchang, Penang Island Malaysia",,4.5,7,5.3892587,100.3075606
Annapoorni Restaurant,Indian,"38 Lebuh China, George Town, Penang Island 10200 Malaysia",1,4.5,8,5.417682,100.340104
Teszta Resto,"Pizza,Seafood,International,Italian","2-G-13A, Solaria Square, Bayan Lepas, Penang Island 11900 Malaysia",,4,7,5.3001389,100.2661972
Island Park Restaurant,Chinese,"No. 38, Tkt Tembaga, George Town, Penang Island 11600 Malaysia",,4,8,5.3913639,100.300409
Shin Boon Kee Chicken and Duck Rice,Chinese,"425C Jalan Burma, George Town, Penang Island Malaysia",,4.5,5,5.4322458,100.3098434
Dim Sum King Penang,"Chinese,American,Indian","35, Jalan Anson,, Penang Island 10400 Malaysia",1,5,4,5.4188833,100.3231012
Chill Bar & Refuge,American,"55 Jalan Nagore, George Town, Penang Island 10050 Malaysia",3,5,6,5.420974,100.325967
Shariff Nasi Kandar,,"159, Jalan Permai, Taman Brown, George Town, Penang Island 11700 Malaysia",1,4.5,7,5.371256,100.3019528
J-Garden,Japanese,"368-1-1 Bellisa Row, Jalan Burmah, Pulau Tikus, Pulau Pinang. Bellisa Row, Penang Island 10350 Malaysia",2,4,8,5.4328209,100.30962
The Memory Lane Mufe,Chinese,"32, Jalan Servis, George Town, Penang Island 10050 Malaysia",2,4.5,8,5.4256,100.3204421
Ssambap Korean,"Korean,Asian","Jalan Tun Dr Awang 1-1-24, Krystal Point Corporate Park, Penang Island 11900 Malaysia",,4,10,5.3297441,100.2938471
"Sri Ananda Bahwan, Macalister Road","Indian,Asian,Malaysian","225 Macalister, George Town, Penang Island 10450 Malaysia",2,3.5,85,5.42164,100.30469
Four Seasons Tea Restaurant,"Chinese,Asian,Thai","80-U Jalan Trengganu, George Town, Penang Island 10460 Malaysia",1,3.5,16,5.4077433,100.3093064
Khoon Hiang,"Malaysian,Asian","358 Jalan Dato Keramat,, Penang Island Malaysia",,4.5,8,5.4130419,100.3195761
Chili's Grill & Bar,"Mexican,American,Southwestern","Persiaran Gurney, George Town, Penang Island 10250 Malaysia",2,3,115,5.4344703,100.3148649
Adam's Famous Chicken Curry Puff,,,2,,0,,
Pen & Nic's Kitchen,"European,Asian,Fusion","29 & 31,One City Jalan Perniagaan Seri Juru,Pusat Perniagaan Seri Juru, Simpang Ampat, Penang Island 14100 Malaysia",2,5,3,5.3125525,100.4462626
Harvest Wok,Chinese,"48 Lengkok Moulmein, George Town, Penang Island 10350 Malaysia",,4,10,5.4291214,100.312702
Five Stars Restaurant,Chinese,"19C Lebuhraya Batu Lanchang, George Town, Penang Island 11600 Malaysia",2,4.5,7,5.395378,100.2996431
The Glasshouse,"Italian,Chinese,Cafe","8, Gat Lebuh Gereja The Prestige Hotel, George Town, Penang Island Malaysia",2,4,9,5.4165076,100.3427629
Winter Warmers,"Chinese,Asian,Fusion","Queensbay 11900 Bayan Lepas Queensbay Mall, Bayan Lepas, Penang Island Malaysia",2,4,12,5.3331774,100.3066084
Kitano @ Jazz Japanese Restaurant,Japanese,"No. 1, Jalan Seri Tanjung Pinang 1, Penang Island 10470 Malaysia",,5,4,5.4523437,100.3084996
Japanese Restaurant Iso Gin,Japanese,"B-1-6, Vantage Desiran Tanjung, Jalan Desiran Tanjung, Tanjung Tokong, Penang Island 10470 Malaysia",,4.5,9,5.4558393,100.3076699
Kafe Heng Huat,"Asian,Malaysian","108 Lorong Selamat, George Town, Penang Island Malaysia",1,3.5,106,5.4170792,100.3246073
Nasi Kandar Kampung Melayu,"Asian,Malaysian","Jalan Kampung Melayu A-29, Air Itam, Penang Island Malaysia",1,4,6,5.4003451,100.2843284
Hug Chinese Restaurant,Chinese,"No 1-2-13 & 15, Elit Avenue Jalan Mayang Pasir, Bayan Lepas, Penang Island 11950 Malaysia",3,4.5,8,5.3222874,100.2831026
Kim Laksa,,"67 Balik Pulau Penang, Balik Pulau, Penang Island 11000 Malaysia",1,4,9,5.3400647,100.2039477
Fook Cheow Cafe,"Asian,Malaysian","Hutton lane, Penang Island Malaysia",1,4,11,5.4204777,100.3289046
Mikki Western Food / Mikki Western Junction,,,1,,0,,
Vege Delight,,"72-1-1, Arena Curve, Jalan Mahsuri, Bayan Baru, Bayan Lepas, Penang Island 11950 Malaysia",2,4.5,5,5.3256576,100.2807164
The Six Premium Cantonese,,"Jalan Dato Keramat Penang Times Square, George Town, Penang Island 10150 Malaysia",3,4,11,5.412176,100.3256387
Muthu Banana Leaf Restaurant,Indian,"143 Lebuh Acheh, George Town, Penang Island 10300 Malaysia",1,3.5,8,5.4152544,100.3358237
Jeeves,,,1,,0,,
Elite House,"Chinese,Seafood,Asian","8 Jalan Perusahaan Jelutong 2 Fortune Park, George Town, Penang Island 11600 Malaysia",2,3.5,18,5.3950584,100.3235891
Sin Nam Huat,"Cantonese,Chinese","70 Beach Street Lebuh Pantai, George Town, Penang Island Malaysia",,4.5,7,5.4164199,100.340819
Dessert Old Time Delight Shop,"Chinese,Asian","78 Lebuh Kimberley Near Penang Upside Down Museum, George Town, Penang Island 10100 Malaysia",1,4,12,5.4158046,100.3335296
Mizi Bistro Bayan Lepas,,,1,,0,,
Mellowcup Coffee,"Chinese,Asian,Soups","11-G-4, New Jalan Gottlieb New Bob Center, George Town, Penang Island 10350 Malaysia",2,4.5,6,5.431975,100.3018193
The 9ine by Jackie Wong,"Cafe,European,Asian","9, Jalan Kek Chuan, George Town, Penang Island 10400 Malaysia",2,4,7,5.4149393,100.3247608
Wako Sushi Omakase ?????????,"Japanese,Sushi,Kaiseki","16,gat Lebuh Acheh, George Town, Penang Island 10300 Malaysia",3,5,3,5.4129496,100.3379266
Penang Road Famous Laksa,,,3,,0,,
Kum Kei,Chinese,"76G Persiaran Mahsuri 2, Bayan Lepas, Penang Island 11950 Malaysia",,4,8,5.3262395,100.2796914
Ah Shen Presgrave St Famous Duck Egg Char Koay Teow,"Chinese,Asian,Indonesian","St cor, Presgrave, Lebuh Mcnair Between Coffee House, George Town, Penang Island 10300 Malaysia",1,5,4,5.4111449,100.3305763
Kedai Makanan Seong Huat,Chinese,"Jalan Larut, George Town, Penang Island Malaysia",1,4,12,5.4223886,100.3260988
Jia Siang Cafe,,,1,,0,,
Roselle Coffee House,,"Jalan Teluk Kumbar 35, Teluk Kumbar, Penang Island 11920 Malaysia",2,5,4,5.2875379,100.2326849
Saffron Cafe Penang,,"Jalan Dr Lim Chwee Leong 33-SB-01 Prangin Mall, George Town, Penang Island 10100 Malaysia",2,4,20,5.414683,100.331112
Hussain Pasembur King,"Seafood,Asian,Malaysian","No 29, Kompleks Makanan Medan Renong, Jalan Tun Syed Barakbah, Georgetown, Penang, George Town, Penang Island 10200 Malaysia",2,4.5,5,5.4229231,100.3407113
Yi Bing Qing Fish Head Steamboat,Chinese,"16 Jalan Nagore, George Town, Penang Island 10050 Malaysia",,4,6,5.4215882,100.3262516
MG-Moulmein Gourmet,Cafe,"44 Moulmein Road, George Town, Penang Island 10350 Malaysia",1,5,4,5.4293996,100.3117394
Poh Hock Lye Cafe,,,1,,0,,
Banh Mi Ut (Queensbay Mall 3F-09),Vietnamese,"Level 3F-09, Queensbay Mall, Bayan Lepas, Penang Island 11900 Malaysia",1,5,5,5.3331774,100.3066084
Rasa Rasa Food & Beverage,"Malaysian,Asian","59, Gat Lebuh Chulia, George Town, Penang Island 10300 Malaysia",,5,7,5.4141318,100.3407113
Sri Tanjung Cafe,"Asian,Malaysian","No 1 & 2 Pengkalan Weld Royale Bintang Penang, George Town, Penang Island 10300 Malaysia",2,3.5,19,5.4168989,100.3439565
My Western influence,"Belgian,Moroccan,Mediterranean","Jalan Argyll 161 A, George Town, Penang Island 10050 Malaysia",1,5,5,5.4215571,100.3304171
The Lengkuas Cafe,"Chinese,Indian,Cafe","161-A Argyll Road, George Town, Penang Island 10050 Malaysia",2,4.5,7,5.4215571,100.3304171
A.Maze,"Asian,Fusion,European","2-G-5, Bangunan Lip Sin, Lebuh Pekaka 1, Penang Island 11700 Malaysia",,5,3,5.3488804,100.2956636
Rising Ramen Tori,Japanese,"9-1-01 Moulmein Rise Shoppes, Pulau Tikus, Penang Island 10350 Malaysia",1,4,6,5.4296215,100.3123807
Zheng Xian Ge Restaurant,"Chinese,Seafood,Asian","A-3-1 & A-3-2, Vantage Desiran Tanjung Jalan Desiran Tanjung,, Tanjung Tokong, Penang Island 10470 Malaysia",3,4.5,4,5.4558393,100.3076699
Hanakoya Flower Cafe Penang,"Italian,Chinese,Southwestern","Lebuh Muntri No 83, George Town, Penang Island 10200 Malaysia",1,4.5,6,5.420122,100.3350409
Sun Yoon Kee Restaurant,"Chinese,Asian,Cantonese","35 Cintra Street, George Town, Penang Island 10100 Malaysia",2,4,17,5.418447,100.333895
Javana Lounge,"Asian,Dining bars","PARKROYAL Penang Resort, Batu Ferringhi, Penang Island 11100 Malaysia",1,4.5,3,5.4722851,100.2461974
Cube Coffee Tan Jetty,"International,European,Asian","Pengkalan Weld, George Town, Penang Island 10300 Malaysia",2,5,4,5.4136483,100.3407601
Sin Hup Aun Cafe,,,2,,0,,
Tori Deli,"Southwestern,Cafe,Asian","12, Lebuh Pantai, George Town, Penang Island 10300 Malaysia",2,5,3,5.4177627,100.3424659
Imperial Court Restaurant,"Chinese,Cantonese,Taiwanese","1 Jalan Penang Level 6, The Top, Komtar, George Town, Penang Island 10000 Malaysia",2,3.5,20,5.413951,100.3303671
Revolving Restaurant,,"Lebuh Farquhar Chinatown, George Town, Penang Island Malaysia",2,3.5,55,5.4219006,100.336692
Tuai Pui Curry Mee,"Asian,Malaysian,Chinese","23 Lebuh Kimberley, George Town, Penang Island 10100 Malaysia",,3.5,13,5.4154302,100.3341557
Urban Green Cabin,"Italian,Cafe,Mediterranean","156, Lebuh Victoria, George Town, Penang Island 10300 Malaysia",1,4,5,5.4133356,100.3389352
Chinese Dumpling,"Chilean,South American,Chinese","80-h, Jalan Mount Erskine, Kampung Raya Baharu, Tanjung Tokong, Penang Island 10470 Malaysia",,5,3,5.4482658,100.3021335
Face To Face Noodles House Bayan Lepas,"Chinese,Asian,Malaysian","The One 5 Tingkat Mahsuri, Bayan Lepas, Penang Island 11950 Malaysia",1,4,12,5.327826,100.2847419
Yum Cha Tea Parlour Georgetown,"Steakhouse,Asian,Taiwanese,Chinese","84, Lebuh Gereja, George Town, Penang Island 10200 Malaysia",,5,4,5.4189914,100.3398541
Sukhothai Beef Noodles House,"Thai,Asian","Gurney Paragon Mall Gurney Drive,, Penang Island 10250 Malaysia",,4.5,6,5.4357359,100.311185
Bread History,,"7F, Ground Floor, Jalan Gottlieb, Pulau Pinang, Penang Island 10350 Malaysia",1,4.5,4,5.431995,100.3013731
Durian Cap Kaki,Healthy,"Jalan Paya Terubong/220 Relau Bayan Lepas, Penang Island 11900 Malaysia",2,5,4,5.3300774,100.277075
Lameizi Restaurant Sdn. Bhd,Chinese,"Lameizi Restaurant Sdn. Bhd Lameizi Restaurant Sdn. Bhd 5 Jalan Nagore, Penang Island 10050 Malaysia",2,4,9,5.4216966,100.3265113
Burger Ayam Goreng NJoy,"Fast food,Asian,Street Food","6, Lorong Kekabu 2, Taman Desa Wangsa Permatang Damar Laut, Bayan Lepas, Penang Island 11960 Malaysia",1,5,4,5.2770402,100.2708463
Lazeez Restaurant,"Middle Eastern,Indian","6 Jalan Batu Ferringhi Opposite Al Rehman Mosque, George Town, Penang Island 11100 Malaysia",,4.5,7,5.468853,100.2772893
Chillz Cafe Ambience Yoga,"Chinese,Asian,Fusion","A-3-10, Vantage Desiran Tanjung, Penang Island 10470 Malaysia",2,5,3,5.4558393,100.3076699
Kuta Bali Cafe,International,"19, Lintang Paya Terubong 1 Bandar Baru Air Itam, Penang Island 11060 Malaysia",1,4,8,5.3914387,100.2764444
Kazumasa Japanese Cuisine Sdn. Bhd.,"Sushi,Dining bars,Japanese Fusion","Fettes 10, 50C-1 Jalan Fettes, 11200 Tanjung Bungah, Pulau Pinang, Penang Island 11200 Malaysia",3,5,7,5.45165,100.305155
The Brgr,American,"85, Jalan Nagor, George Town, Penang Island 10050 Malaysia",2,5,5,5.4206878,100.3258892
Pakeeza Safa Marwah,"Barbecue,Asian,Arabic","Jalan Batu Feringghi, Batu Ferringhi, Penang Island 11100 Malaysia",1,3.5,18,5.477061,100.2533085
Hussain mee goreng,Asian,"Jalan Jelutong, George Town, Penang Island Malaysia",,4.5,4,5.3963418,100.3182566
Bibi's Fashion & Cafe,Cafe,"87-D Jalan Kelawai, George Town, Penang Island 10250 Malaysia",2,3.5,19,5.4338397,100.311586
Norm Micro Roastery,"Asian,Fusion,Malaysian","13, Gat Lebuh Gereja, George Town, Penang Island 10300 Malaysia",2,4.5,17,5.4167269,100.3425933
Shallots,"Chinese,Thai","B-G-10 Jalan Desiran Tanjung Vantage, Tanjung Tokong, Penang Island 10470 Malaysia",3,4,5,5.4564624,100.3077844
Dave's Deli,,"Persiaran Bavan Indah Lot L8051 queensbay mall, Banyan Lepas, Penang Island 11900 Malaysia",2,4,15,5.3331774,100.3066084
De' Secret Kitchen,Asian,"163, Macalister Road, George Town, Penang Island 10450 Malaysia",,5,3,5.4186875,100.3184143
Punjabi Chapati House,"Indian,Asian","12, Lorong Mahsuri 10, Bayan Baru,, Penang Island 11950 Malaysia",1,5,3,5.3271813,100.2884855
Chee Meng Cafe,Chinese,"100 Argyll Road, Penang Island 10050 Malaysia",1,5,3,5.4210327,100.3316011
BumbleDees Cafe USM,,"Jalan Pemimpin Universiti Sains Malaysia, Penang Island 11800 Malaysia",2,4,10,5.3623853,100.307999
What The Duck Restaurant,"French,Asian,Fusion","No.108 Jalan Tun Dr Awang Lot No : L1-15 & 16, Level 1, Setia Spice Canopy, Bayan Lepas, Penang Island 11900 Malaysia",2,4,8,5.3286366,100.2807998
Rustic Restaurant,Fusion,"Vantage Point B -G-1 Jalan Tanjung Tokong, George Town, Penang Island 10470 Malaysia",2,4,18,5.4443157,100.3057781
Yeh Lin Seafood Steamboat,Seafood,"Jalan Air Putih, George Town, Penang Island 11000 Malaysia",,5,4,5.4054533,100.2865515
Tan Jetty Thai Food Restaurant,"Asian,Thai,Vegetarian Friendly","Tan Jetty Thai Food Restaurant 97a Weld Quay Tan Jetty, Penang Island 10300 Malaysia",2,3.5,19,5.4113306,100.3391962
Ca Cart Cafe,"Chinese,Cafe,Asian","143 Lebuh Pantai, Penang Island 10300 Malaysia",1,4,8,5.4149424,100.3389854
Miga Korean BBQ,"Korean,Asian","12G Persiaran Bayan Indah, Bayan Lepas, Penang Island 11900 Malaysia",,4.5,5,5.3359549,100.3073429
Little Boutique Cafe,"Italian,Cafe","139, Jalan Masjid Kapitan Keling, George Town, Penang Island 10300 Malaysia",1,5,3,5.4156946,100.3372767
Beach Comber,,,1,,0,,
Li Er Nyonya Cafe,"Asian,Malaysian","349, Jalan Burma, George Town, Penang Island 10350 Malaysia",2,4.5,4,5.4309052,100.3121559
Wells Cafe,"Asian,Malaysian","No.79, Jalan Nagor, George Town, Penang Island 10050 Malaysia",2,4.5,4,5.4207464,100.3259988
Uncle Tetsu Plaza Gurney,Cafe,"Gurney Dr, George Town, Penang Island 10350 Malaysia",2,4,12,5.4344703,100.3148649
Sushi-B'rito,"Japanese,Cafe,Fusion","No.108B-01-12 Jalan Tun Dr Awang, Bayan Lepas, Penang Island 11900 Malaysia",2,4,8,5.3320862,100.2920005
Rabbit X HoldUp,"Japanese,Australian","73, Jalan Kuala Kangsar, Penang Island 10200 Malaysia",2,4.5,4,5.4166532,100.3318203
Chuan Yee Charcoal Steamboat,"Asian,Malaysian,Seafood","5 Jalan Kek Chuan, George Town, Penang Island 10400 Malaysia",,4.5,4,5.4151278,100.3246785
Kopitan Classic Penang Delight,"Asian,Malaysian","Lebuh Pantai Logan Heritage 4A/B, George Town, Penang Island 10200 Malaysia",2,3.5,38,5.4181689,100.3430275
Paper Lobster,Seafood,"66G, Olive Tree Commercial Lots Persiaran Mahsuri 2, Bayan Lepas, Penang, Penang Island 11950 Malaysia",2,4,13,5.326557,100.279462
Jio Ba,"Malaysian,Asian","65 Jalan Gurdwara, George Town, Penang Island 10300 Malaysia",,4.5,5,5.4118394,100.3281042
Zheng He,"Chinese,Asian,Nonya/Malaysian","203 Hutton Lane, George Town, Penang Island Malaysia",2,4,13,5.4208258,100.3291451
Sin Lean Heang Restaurant,"Asian,Chinese","360-G-7, Gat Lebuh Macallum, George Town, Penang Island 10300 Malaysia",,3.5,9,5.4067658,100.3337479
Hong Kong 8am,"Chinese,Fast food,Asian","93 Lorong Macalister Georgetown, Penang Island 10400 Malaysia",1,4,6,5.4166898,100.3285097
Hong Kee Bamboo Noodle,Chinese,"37, Lebuh Campbell, George Town, Penang Island 10200 Malaysia",1,4,6,5.417202,100.3351498
Little Cottage Cafe,Italian,"96-A Jalan Burmah, George Town, Penang Island 10050 Malaysia",,4,12,5.4191647,100.3273794
CMR Restaurant,Chinese,"70-1-12 D'Piazza Mall, Jalan Mahsuri 70-01-12a & 14 D'Piazza Mall, Bayan Baru, Bayan Lepas, Penang Island 11950 Malaysia",,3.5,11,5.3265257,100.2833421
Xiang Yun Vegetarian House,,"17-G-31, Medan Kampung Relau MK 12, Bayan Point, Bayan Lepas, Penang, Bayan Lepas, Penang Island 11900 Malaysia",2,4.5,5,5.3333795,100.2940847
Te Amor Bakery & Confectionery,,,2,,0,,
Amma Aroma Villas Cuisine,"Asian,Malaysian,Indian","65, Ground Floor, Pusat Komersial Persiaran Mutiara 7, Bandar Tasek Mutiara, Simpang Ampat, Penang Island 14120 Malaysia",,5,3,5.2796131,100.492321
Purple Stone Vegetarian Food Centre,,"608-B Jalan Paya Terubong, Air Itam, Penang Island 11500 Malaysia",1,4,6,5.400563,100.278193
Hoshino Coffee,"Japanese,Cafe","Gurney Dr. Gurney Plaza, Georgetown, Penang Island 10250 Malaysia",2,3.5,25,5.4380431,100.3100232
Umi,"Asian,Malaysian","Block 2B, Level 5, Unit R10 & R11, Jalan Penang, The TOP Komtar Penang, Malaysia, George Town, Penang Island 10000 Malaysia",1,4,4,5.413951,100.3303671
Back Home,,"Back Home Back Home 7 Back Home 2Q Lorong Delima, Penang Island 11700 Malaysia",2,4.5,6,5.3820304,100.3046802
LK Western Cafe,,,2,,0,,
CIAO Cafe.bar,,,2,,0,,
BMS Organics,,"No.9, Jalan Moulmein, Moulmein Rise, Pulau Tikus, Penang Island 10350 Malaysia",2,4,7,5.4294538,100.312365
Pleasure Room Cafe,"Malaysian,Asian","11, Lebuh Carnarvon,, George Town, Penang Island Malaysia",,5,3,5.4174679,100.3361091
Hana Thai Kitchen,Asian,,,,0,,
Cafe Ko Cha Bi,Asian,"110, Jalan Besar, Balik Pulau, Penang Island 11000 Malaysia",1,4,7,5.3400647,100.2039477
Bei tou squid snack,,,1,,0,,
Mama's Food,"Malaysian,Asian","No.55,Anson Road, George Town, Penang Island 10400 Malaysia",,5,2,5.4167657,100.3215141
Winter Warmers Coffee and Tea House,"American,Cafe,European","Lot No. 3A-G-17, Straits Quay Jalan Seri Tanjung Pinang, Tanjung Tokong, Penang Island 10470 Malaysia",2,4,5,5.450422,100.307274
Gan En Wu Tang Shui,,,2,,0,,
Savour Bakery,"Halal,Healthy","170-B1-20&21, Plaza Gurney, Penang Island 10250 Malaysia",,4.5,4,5.4380431,100.3100232
Journey2Life,,"C-3-1 Lorong Bayan Indah 3, Bayan Lepas, Penang Island 11900 Malaysia",2,4.5,6,5.3375364,100.3071393
Genting Farlim,Chinese,"26-A, Lintang Angsana, Bandar Baru Air Itam, Penang Island 11500 Malaysia",2,5,4,5.3882146,100.2828068
Coffee Downstairs Penang,Cafe,"84, Lebuh China, George Town, Penang Island 10200 Malaysia",2,5,3,5.4183788,100.3390832
D'seafood Paradise,"Seafood,Asian,Malaysian","Jalan Teluk Tempoyak, Penang Island 11960 Malaysia",2,4,12,5.2760323,100.2866007
Bao Teck Tea House,Chinese,"25, Lebuh Melayu, George Town, Penang Island 10100 Malaysia",,4.5,8,5.4132836,100.3352253
Double Dragon,Chinese,"27B Gottlieb Road, George Town, Penang Island Malaysia",2,4.5,8,5.4307555,100.3000598
Danish Briyani House Batu Ferringi,"Indian,Fast food,Barbecue","Batu Feringghi G 1 Eden Prade, Penang Island 11100 Malaysia",2,3.5,27,5.47124,100.246491
Kiyomi Japanese Restaurant,Japanese,"Elite Avenue 1-01-09 Jalan Mayang Pasir 3, Bayan Lepas, Penang Island 11950 Malaysia",2,4,7,5.3232281,100.2827599
Kwong Sang House,Chinese,"36 Leith Street, Penang Island 10220 Malaysia",,4,14,5.4204186,100.3333008
Chulia ????? Restaurant & Bar,Fusion,"352 Lebuh Chulia, George Town, Penang Island 10200 Malaysia",2,4.5,3,5.4189936,100.3351946
Chef Nyonya Restaurant,"Asian,Malaysian","Jalan Tanjung Tokong A-G-8 The Vantage, Penang Island 11200 Malaysia",2,4,6,5.4561444,100.3079791
Talk Talk Wine Bar & Lounge,"Bar,International,Thai","3 2-G-4 & 2-G-5 Bangunan Lip Sin Lorong Lebuh Pekaka Satu, George Town, Penang Island 11700 Malaysia",2,3.5,11,5.3488804,100.2956636
Double Good,"Chinese,Asian","Bukit Jambul, George Town, Penang Island Malaysia",2,3.5,23,5.3348787,100.2808954
Ben's Diner,Diner,"43g Persiaran Mahsuri 1/1, Bayan Lepas, Penang Island 11900 Malaysia",,4.5,4,5.3228403,100.2785537
Bread King,,"79-G-59 Jalan Dato Keramat M Mall, Penang Times Square, George Town, Penang Island 10000 Malaysia",2,4,7,5.4125569,100.3247849
Lam Huat Chicken Rice,,,2,,0,,
Go Noodle House Penang,"Chinese,Asian","170 Persiaran Gurney 07-02/03 Gurney Plaza, George Town, Penang Island 10250 Malaysia",2,3.5,20,5.4380431,100.3100232
Viking Steakhouse,"Southwestern,Soups","546-D Jalan Tanjung Bungah Tanjong Tokong, Tanjung Bungah, Penang Island 11200 Malaysia",2,4,4,5.4623426,100.3056362
Lorong Selamat Fried Oyster & Char Hor Fun,"Chinese,Asian,Malaysian","George Town, Penang Island Malaysia",1,3,57,5.4141307,100.3287506
Raja's 25 Restaurant,,"25 Lorong Bangkok, George Town, Penang Island 10250 Malaysia",2,4,6,5.4319314,100.3128902
Tong Lek 8,"Malaysian,Asian","156 Jalan Macalister, George Town, Penang Island 10400 Malaysia",,4,7,5.4164299,100.3240613
Bake 'n' Take,Asian,,,,0,,
Terrace Cafe,"Indian,International","72 Jalan Batu Ferringhi Holiday Inn Resort ,, Batu Ferringhi, Penang Island 11100 Malaysia",2,3.5,16,5.4750544,100.24941
Subway,Fast food,"47 & 49 Lebuh Leith, George Town, Penang Island 10200 Malaysia",2,3,29,5.4200071,100.3328969
Daseo Malaysia,,,2,,0,,
Spasso Milano,"Italian,Pizza","Spasso Milano Jalan Seri Tanjung Pinang Lot 3C-G2, Block C, Ground floor, Straits Quay, Penang Island 10470 Malaysia",2,3.5,13,5.4580314,100.3133518
"Lot33, Prangin Mall Sub-Basement",,"Lot33, Prangin Mall Sub-Basement Jalan Dr. Lim Chwee Leong, Penang Island 11500 Malaysia",2,4,8,5.4141708,100.3313709
Hong Kong Kim Gary Restaurant,Chinese,"3068, Jalan Todak Pusat Bandar UG - 16 Sunway Carnival Mall, Penang Island 13700 Malaysia",,4,6,5.3986416,100.3976623
Izakaya by Sango,"Japanese,Contemporary","161 Lebuh Noordin, George Town, Penang Island 10300 Malaysia",2,4.5,3,5.4129575,100.3292223
Sushi King - Gurney Plaza,"Japanese,Sushi,Asian","Lot 170-02-58 Bulatan Gurney Persiaran Gurney, George Town, Penang Island 10250 Malaysia",2,3.5,31,5.4380431,100.3100232
Penang Best MK Coconut Shake,Cafe,"8, Lebuh Keng Kwee, George Town, Penang Island 10100 Malaysia",,4.5,3,5.4168955,100.3312174
Tong Sui Po,"Asian,Chinese","64 Seang Teik Road, George Town, Penang Island Malaysia",,5,5,5.4140178,100.3232262
Vino Vino Bistro,Japanese,"Block H-10-1, Lorong Bayan Indah 2 Bay Avenue, Bayan Lepas, George Town, Penang Island Malaysia",2,3.5,12,5.3371813,100.3076669
Khunthai Village Restaurant,"Thai,Malaysian,Asian","9 Mukim Pasig Balanda, Penang Island 11820 Malaysia",,4.5,3,5.3673161,100.2486493
Soba Yoshi Japanese Noodle Restaurant,"Asian,Japanese","303-01-16 Jalan Sultan Azlan Shah, Bayan Lepas, Penang Island 11900 Malaysia",,4,6,5.3316539,100.296875
Johnny Rockets,American,"Johnny Rockets Johnny Rockets 21 & 22 Persiaran Gurney 163d-1-20a, Penang Island 10250 Malaysia",2,3.5,20,5.4357359,100.311185
Plan B,,"100 Persiaran Bayan Indah Queensbay Mall, Ground Floor, Bayan Lepas, Penang Island 11900 Malaysia",2,3.5,25,5.3331774,100.3066084
MGI Classic Kitchen,"Cafe,European,Asian","No 3 & 5 Lebuh Carnavon, George Town, Penang Island Malaysia",1,4.5,6,5.4176,100.3361705
Xii Chan,"Italian,American,Southwestern","22, Kampung Malabar, George Town, Penang Island 10200 Malaysia",1,5,5,5.4190317,100.3330481
Kirin Sushi,,,1,,0,,
Karaikudi Restaurant,Indian,"1, Jalan Sungai Kelian Tanjung Tokong, Tanjung Bungah, Penang Island 11200 Malaysia",2,3.5,7,5.4645093,100.2927369
Shahnur Restaurant,"Middle Eastern,Pakistani,Indian","58 Jalan Batu Ferringhi, 11100, Penang, Batu Ferringhi, Penang Island 11100 Malaysia",,4,5,5.4706347,100.2455377
Grand Vege Creative Restaurant,"Fusion,Diner,Japanese Fusion,Chinese","11-c Lorong Abu Siti,, George Town, Penang Island 10400 Malaysia",,4.5,3,5.4197683,100.3250043
The Busy Monet (Restaurant & Lounge),"Bar,Cafe,Asian","363-2, Vantage Point, Jalan Perak Jelutong, Penang Island 11600 Malaysia",1,5,2,5.4015359,100.3148597
Roti bakar penang,Indian,"Penang Times Square, Penang Island Malaysia",,3.5,7,5.412176,100.3256387
The Skewery,"Chinese,Fast food","176, Jalan Hutton, George Town, Penang Island 10050 Malaysia",1,5,2,5.4223092,100.3265423
Hideout,"Asian,Fusion,Malaysian","170 Persiaran Gurney Opposite Daiso, Penang Island 10250 Malaysia",2,5,2,5.4297067,100.3202996
Kim Poh Roasted Chicken & Duck Rice,"Asian,Malaysian,Chinese","52A-1, Jalan Pisang Berangan,, Air Itam, Penang Island 11500 Malaysia",,4.5,3,5.3964127,100.2868419
Tasty Kitchen,Chinese,"598- GF-02 Jalan Tanjung Bungah, Tanjung Bungah, Penang Island Malaysia",,5,2,5.4634687,100.3015789
We Love Fine Wine Centre,Wine Bar,"106 Jalan Hutton, George Town, Penang Island 10500 Malaysia",2,5,3,5.4208506,100.3292974
Dome Gurney Plaza,Malaysian,"Lot G-24 Block 170 Persiaran Gurney Plaza Gurney, George Town, Penang Island 10250 Malaysia",2,3.5,52,5.4380431,100.3100232
Siam Express,Thai,"Queen Bay Mall Basement, Bayan Lepas, Penang Island 11900 Malaysia",2,4,10,5.3331774,100.3066084
Han Sik Ga,,,2,,0,,
Joo Leong Cafe,,"12, Jalan Sungai Tiram, Kampung Sungai Tiram, Bayan Lepas, Penang Island 11900 Malaysia",1,3.5,6,5.3023087,100.276554
James Foo,Southwestern,"01-01-11, Elite Avenue, Bayan Lepas, Penang Island 11950 Malaysia",2,3.5,24,5.3222874,100.2831026
Blue Reef Fish & Chips,"Seafood,British","Elit Avenue Blok1-01-38, Elit Avenue, Jalan Mayang Pasir 3, Bayan Baru, Bayan Lepas, Penang Island 11950 Malaysia",2,4,9,5.3222874,100.2831026
Nenda's Kitchen,"Cafe,International,European","8, Jalan Kampung Jawa, Bayan Lepas, Penang Island 11900 Malaysia",1,5,2,5.3257838,100.2941861
Malabar,"Nonya/Malaysian,Chinese","Lorong Kampung Malabar, George Town, Penang Island Malaysia",,3.5,8,5.4189959,100.3329393
Sam Thalia,"Fast food,Thai,Fusion,Italian","Lebuh King 18 Under Space Disted Student Residence, George Town, Penang Island 10200 Malaysia",,4.5,3,5.423586,100.3077727
Bom Baa Kopitiam Cafe,"Asian,Malaysian","No, 10, Seh Tan Jetty Pengkalan Weld Quay, Penang Island 10300 Malaysia",1,5,2,5.4110861,100.3396237
Cintra Food Corner,,"40 Lebuh Cintra, George Town, Penang Island 10100 Malaysia",1,4,7,5.4179146,100.3334934
Zhonghua Gourmet,"Chinese,Seafood","66 Jalan Penang Ground Floor, Cititel Hotel Penang, Penang Island 10000 Malaysia",2,3.5,11,5.4214039,100.332934
Kopi & Toast,"Asian,Malaysian","63 Gat Lebuh Chulia, George Town, Penang Island 10200 Malaysia",1,4,6,5.4139792,100.340788
Sri Subham Restauranr,,"47, Penang Street, George Town, Penang Island Malaysia",1,3.5,11,5.4176067,100.3404642
No. 1 Cannon Street Galeri & Kafe,,"1 Lebuh Cannon, George Town, Penang Island 10200 Malaysia",1,4,7,5.4151521,100.3369414
Gold Coast Chulia St. Restaurant,"Chinese,Seafood","427 & 429 Chulia Street, George Town, Penang Island 10200 Malaysia",1,5,2,5.4190467,100.334419
Ying Her Kopitiam,"Fast food,Asian,Street Food,Chinese","104 E Jalan Macalister, George Town, Penang Island 10400 Malaysia",,5,2,5.4155444,100.3258
Restoran Kimberly,"Chinese,Asian,Malaysian","137 Lebuh Kimberley, George Town, Penang Island 10100 Malaysia",1,3.5,18,5.4162544,100.3327575
Black Door Coffee,"American,Cafe,Asian","Jalan Mahsuri 72-1-05, Arena curve, Bandar Sunway Tunas, Bayan Lepas, Penang Island 11950 Malaysia",2,3.5,10,5.3256576,100.2807164
AK Satay,"Asian,Indonesian,Singaporean,Chinese","67B Lebuh Presgrave, George Town, Penang Island 10300 Malaysia",,5,2,5.4111347,100.3305877
Lye Lee Kopitian,Chinese,,,,0,,
Wakao Penang,Chinese,,,,0,,
Gelaihh Cafe,"Malaysian,Asian","31-1-5 The CEO, Bayan Lepas, Penang Island Malaysia",,4.5,3,5.3364375,100.2924283
Teddy Wheel Cake,Asian,"266, Lebuh Pantai, George Town, Penang Island 10300 Malaysia",,4.5,2,5.4145103,100.338201
Town Steamboat Restaurant,"Asian,Malaysian","63 Macalister Road, George Town, Penang Island Malaysia",1,3.5,16,5.4156149,100.3247498
Kakiyuki,"Korean,Fusion,Asian","160 Macalister Road, George Town, Penang Island 11400 Malaysia",,4.5,2,5.4164952,100.3240391
Queensbay Hong Kong Kim Gary Restaurant,"Chinese,Asian","No. Lot 1f-99 & 1f-K2 First Floor, Queensbay Mall, Penang., Bayan Lepas, Penang Island 11900 Malaysia",2,3.5,18,5.3324722,100.3073227
The Golden Triangle,"Thai,Indonesian,Asian","1808 ????? 1809, Jalan Perusahaan, George Town, Penang Island 13600 Malaysia",,3.5,7,5.3384944,100.4292235
Claypot King JI Bao Wang,Chinese,"32 Jalan Larut, George Town, Penang Island 10050 Malaysia",1,4.5,3,5.4226683,100.3261749
Imperial Chinese Cuisine,Chinese,"33-SB-01 Prangin Mall Jalan Dr. Lim Chwee Leong, Penang Island 10100 Malaysia",2,4,5,5.414569,100.332346
Wahong Cafe,Asian,"3 Lorong Kampung Jawa, Bayan Lepas, Penang Island 11900 Malaysia",1,4,4,5.327534,100.2945199
Calefe Hauz Gastro Cafe,Fusion,"51 Gat Jalan Perangin, George Town, Penang Island 10300 Malaysia",,4,6,5.4108194,100.3348786
Le Toma Cuisine,European,"9-1-18 Jalan Van Praagh Taman Kheng Tian, Jelutong, Penang Island 11600 Malaysia",1,5,2,5.3967236,100.3127276
Nooodles Corner Penang,,,1,,0,,
JAMMIN,"Spanish,Barbecue","5 Pengkalan Weld, George Town, Penang Island 10300 Malaysia",,4.5,3,5.4161839,100.3436163
Charcoal House,"Cafe,Thai,Pub,Bar","103, Lebuh Victoria Charcoal House, George Town, Penang Island 10300 Malaysia",,4.5,2,5.4120925,100.3365805
Zarie Laksa House,"Soups,Malaysian,Asian","Perumahan 3 Jalan Sungai Emas, Batu Ferringhi, Penang Island 13600 Malaysia",,4,3,5.4746,100.2529477
Nyonya Delights Cafe,Asian,,,,0,,
Nasi Kandar Ayam Bawang,Asian,"74-G-4, Jalan Tengah, Bayan Baru, Bayan Lepas, Penang Island 11950 Malaysia",,4.5,2,5.3195665,100.2861835
Shui Yuan Seafood Restaurant,Asian,,,,0,,
The Wooden Kitchen,Asian,,,,0,,
Mama's Vege,"Asian,Malaysianm,Chinese","170 Persiaran Gurney 3rd Floor, Gurney Plaza New Wing, Penang Island 10250 Malaysia",,4,3,5.4287817,100.3207271
Tiong Lor Bak Kut Teh,Chinese,,,,0,,
May Garden Palace,"Chinese,Asian,Cantonese","70, Penang Road, George Town, Penang Island Malaysia",2,3.5,28,5.4209533,100.3330717
Hau Hau Yu Restaurant,,,2,,0,,
Best Big Bowl Noodles Restaurant,"Asian,Malaysian,Chinese","47a, Lintang Angsana, Bandar Baru, Air Itam, Penang Island 11500 Malaysia",,4.5,2,5.3888187,100.2817679
Home Recipe,"Asian,Malaysian,International","Jalan Dr Lim Chwee Leong - Prangin Mall 3rd floor, Penang Island Malaysia",,3.5,10,5.414683,100.331112
Tims Shisha Cafe,Cafe,"The Palazzia, 97-1-20, Gelugor, Penang Island 11700 Malaysia",,5,2,5.3595473,100.2937998
Projek Nasi Lemak,,"498 Jalan Dato Keramat Solaria Square, Bayan Lepas, George Town, Penang Island 10150 Malaysia",1,4,5,5.3001389,100.2661972
Xuan Feng Restaurant,"Chinese,Japanese,Asian","No. Lot 1-1-23a, Elite Avenue Jalan Mayang Pasir 3, Bayan Lepas, Penang Island 11950 Malaysia",2,3.5,14,5.3222874,100.2831026
Boru,Japanese,"139 Jalan Masjid Kapitan Keling, Penang Island Malaysia",,4,3,5.4156946,100.3372767
Yakitori Tatsujin,"Barbecue,Japanese","66 Jalan Macalister, George Town, Penang Island 10400 Malaysia",,4.5,3,5.415044,100.326931
Swez Brasserie,"French,Japanese,International,Italian","Ground Floor, Eastin Hotel Penang, Penang Island Malaysia",,3.5,6,5.33659,100.306602
Rumah Makan Pusako,"Indonesian,Asian","10, Lebuh Tamil beside Chowrasta Market, George Town, Penang Island 10100 Malaysia",,5,1,5.417692,100.3315117
The Wine Shop Tanjung,"American,Asian,Malaysian,Chinese","1k Jalan Sungai Kelian, Tanjung Bungah, Penang Island 11200 Malaysia",,5,1,5.4645093,100.2927369
Sebai Sebai Thai Restaurant,"Asian,Thai","No1,Lintang Batu,Greenlane, George Town, Penang Island Malaysia",2,3.5,15,5.3873851,100.3060638
Tong Seng Roasted House I-Santorini,Chinese,"Santorini, 8-G-01, I, Jalan Seri Tanjung Pinang 1 Seri Tanjung Pinang, Tanjung Tokong, Penang Island 10470 Malaysia",,5,1,5.4570605,100.3093039
Pulau Tikus Kitchen,"Chinese,Seafood,Asian","236, Jalan Burma, George Town, Penang Island 10350 Malaysia",1,5,3,5.4301588,100.3133396
Arashi Shabu Shabu,Soups,"Arashi Shabu Shabu Gurney Plaza Penang Lot 170-03-85, Level 3, Penang Island 10250 Malaysia",2,3.5,20,5.4375601,100.3096467
Bhai Biryani,"Asian,Diner,Middle Eastern,Indian","119 Lebuh King, George Town, Penang Island 10200 Malaysia",,4.5,3,5.4164817,100.3389574
Table Twenty-three,Indian,,,,0,,
cafe88,Chinese,"Cnr of Jalan Sri Bahari and Penang Rd Georgetown, Penang Island Malaysia",,4,3,5.4206226,100.3330516
Hachiba Izakaya,"Japanese Fusion,Japanese","Level 1, 32, Jalan Kelawai, Georgetown, George Town, Penang Island 10250 Malaysia",,5,2,5.4306892,100.3165645
Brew House Anson Cube,"Asian,Malaysian,Beer restaurants,European","Units 138-1-3&3A, Anson Cube Jalan Anson, Penang Island 10400 Malaysia",,4,2,5.4156539,100.3199373
Shang Place Restaurant,Chinese,"Block 303B-1-31 Jalan Sultan Azlan Shah, George Town, Penang Island 11900 Malaysia",,4,8,5.3316539,100.296875
Coffee Signature Penang,"Italian,French,Cafe","9-LG-01 Jalan Ahmad Nor Pusat Perdagangan Nova, Jelutong, Penang Island 11600 Malaysia",2,4,3,5.3908586,100.3147899
Sea Palace Restaurant,"Seafood,Chinese","2-1-9, First Floor Bangunan Lip Sin Lebuh Pekaka 1 Sungai 2, Gelugor, Penang Island 11700 Malaysia",,3.5,7,5.3488804,100.2956636
Elementos Tapas And Lounge,"Bar,Cafe,Barbecue","533, Jalan C M Hashim, Tanjung Tokong Penang, Tanjung Bungah, Penang Island 11200 Malaysia",2,4.5,2,5.4635364,100.3051766
Jin Cafe,,,2,,0,,
Soon Chi Seafood Restaurant,"Seafood,Chinese","Studio 94 Taman Jawi Jalan Besar, Penang Island Malaysia",,4.5,3,5.2234574,100.4962239
Hungry Ranch,"Italian,American,Grill","31, Jalan Sungai Ujong, George Town, Penang Island 10100 Malaysia",1,5,4,5.415687,100.3318584
Dong Guan Kopitam,Chinese,"16, Jalan Irrawaddi, George Town, Penang Island 10050 Malaysia",,5,2,5.425429,100.321593
Phaik Laksa,"Asian,Malaysian,Fast food","166, Jalan Seang Tek Opposite Anson Road Market, George Town, Penang Island 10400 Malaysia",,5,1,5.4158303,100.3213771
Gurney Food Hall,"Asian,Malaysian,Chinese","170 Persiaran Gurney Gurney Plaza, 4th Floor, Penang Island 10250 Malaysia",,5,1,5.4380431,100.3100232
Granny's Cottage a.k.a Wai Po Jia,"Chinese,Asian,Fusion","170-06-02, Plaza Gurney Persiaran Gurney, George Town, Penang Island 10250 Malaysia",1,3.5,5,5.4390504,100.3098713
Batu Kawan,"Malaysian,Asian","Batu Kawan, Penang Island Malaysia",,4.5,2,5.270447,100.4196629
Dim Sum Valet,Asian,,,,0,,
Mak Ee Cafe,Cafe,"122-F Hutton Lane, George Town, Penang Island 10050 Malaysia",,4.5,2,5.4208701,100.3291555
Apa Nama Ni,"Asian,Malaysian","No.263, Beach Street, George Town, Penang Island 10300 Malaysia",1,5,1,5.4131414,100.336995
Kwong Ban Lee Cafe,Chinese,"Jalan Chan Siew Teong, George Town, Penang Island 11200 Malaysia",,5,1,5.4642021,100.2784642
Village Kitchen,,"70-1-23, D'Piazza Mall, Jalan Mahsuri, Bayan Lepas, Penang Island 11900 Malaysia",1,4,4,5.3265257,100.2833421
Cube Coffee Tanjung Tokong Caltex,"Cafe,Asian","Jalan Tanjung Tokong, Tanjung Tokong, Penang Island 10470 Malaysia",1,4,2,5.4561444,100.3079791
101 Rojak,"Malaysian,Asian","Esplanade Food Court, George Town, Penang Island Malaysia",,5,1,5.4201774,100.3427772
Restoran Floating Seafood Paradise,Seafood,"Lot 2400 Jalan Bukit Tambun, Simpang Ampat, Penang Island 14110 Malaysia",,3.5,10,5.2770146,100.4673157
Tai Wah Cafe,Seafood,,,,0,,
BS Duck Boss,"Malaysian,Asian","5, Jalan Bukit Panchor, Taman Belatuk, Nibong Tebal, Penang Island 14300 Malaysia",,5,1,5.1787504,100.4847798
Arakawa Japanese Gastro & Bar,"Japanese,Bar,Pub","163D-1-31, Gurney Drive Gurney Paragon Mall, George Town, Penang Island 10250 Malaysia",2,4,2,5.4357359,100.311185
Chill With Classic,"Bar,Cafe,Pub","199 Hutton Lane, George Town, Penang Island 10050 Malaysia",2,5,1,5.4208258,100.3291451
George: Booze & Bites,"American,Pizza,Fusion","183 Lebuh Victoria, Penang Island 10300 Malaysia",1,4,4,5.4139747,100.339286
Medan Selera Tanjung Bunga,"Malaysian,Asian","Pesiaran Tanjung Bunga, Tanjung Bungah, Penang Island 11200 Malaysia",,4,2,5.469363,100.2762066
Le Bread Days,Asian,,,,0,,
"BBQ, Great Taste, East Fresh",Asian,,,,0,,
Shanghai Ding House of Dumpling,Chinese,"Block H, 4/G, Persiaran Bayan Indah Bayan Bay 11900, Penang Island Malaysia",2,3.5,11,5.3362001,100.3070362
Wan Tan Mee House,Chinese,"327, Jalan Burmah Pulau Tikus, George Town, Penang Island 10350 Malaysia",,5,1,5.4306658,100.3125341
Micasa,"Bar,Cafe,Pub","90 Love Lane, George Town, Penang Island Malaysia",2,3.5,4,5.4186739,100.3363248
Pavilion,Chinese,"26 Lebuh Presgrave, George Town, Penang Island Malaysia",,4,6,5.4105941,100.3312503
Yoshinoya Hanamaru,"Japanese,Fast food,Asian","B1-37, Basement 1, 170 Gurney Plaza, George Town, Penang Island 10250 Malaysia",2,3,19,5.4297067,100.3202996
Nasi Campur Umi,,,2,,0,,
Gaya's Beach Side Bar & Restaurant,"International,Asian,Pub,Bar","527 Jalan Tanjung Bungah, Penang Island 11200 Malaysia",,3.5,20,5.467183,100.2891769
Hokkien Mee,Chinese,"Corner Jalan Penang and Jalan Kampung Malabar, Penang Island Malaysia",1,3.5,11,5.4189016,100.3317942
Opera,,,1,,0,,
Restoran Yasmeen Nasi Kandar,Indian,"177 Jalan Penang, George Town, Penang Island 10000 Malaysia",1,3.5,7,5.4197524,100.3324747
Simply Delicious,"Malaysian,Asian","Red Garden Food Court Penang, Penang Island Malaysia",,4.5,3,5.4214358,100.3337407
Korean Cafe Shwimpyo,"Korean,Asian","2-1-14, Plaza Ivory, Halaman Bukit Gambir, Sunway Bukit Gambier, Gelugor, Penang Island 11700 Malaysia",,5,1,5.3583162,100.2925742
Kek Lok Si Vegetarian Restaurant,,"Jalan Rambutan Ayer Itam, Penang Island 11500 Malaysia",2,3.5,6,5.4001436,100.2762645
Ki No Me,Japanese,"5 Tingkat Mahsuri 2-1-12 Terrace Plus, The One, Penang Island 11950 Malaysia",,5,2,5.3225,100.2796975
Rooster Roast,"Philippine,Asian,Healthy","Level 5, Gurney Paragon Mall, Gurney drive 10250 Penang Lot 18 & 19 Just Food, George Town, Penang Island 10250 Malaysia",1,4,2,5.4351137,100.3109729
Jung Won Korean BBQ Buffet,,,1,,0,,
Love Bites,Healthy,"11 Nagore Road, Penang Island Malaysia",,4,5,5.4215835,100.3264477
North East China Crusine,Chinese,"292 Burmah Road, Penang Island Malaysia",2,3.5,8,5.4320009,100.3116413
kkang tong korean grill buffet,"Asian,Korean","2-D, Jalan Tanjung Bungah, Penang Island Malaysia",2,3.5,7,5.4656496,100.2915774
Elmondo Italian Western Cuisine,Italian,"Lebuh Tunku Kudin 2 1-1-3 E-Gate, Gelugor, Penang Island 11700 Malaysia",,4,2,5.375986,100.3153234
Aris cheese naan,Asian,"2-1-23A plaza ivory, halaman bukit gambir, Penang Island Malaysia",,4,2,5.3583162,100.2925742
Old Town White Coffee,"Cafe,Street Food,Chinese","100 Persiaran Bayan Indah Queensbay Mall, Bayan Lepas, Penang Island 11900 Malaysia",,4,2,5.3331774,100.3066084
Hollywood Restaurant,"Chinese,Seafood,Asian","543 Jalan Tanjung Bungah, George Town, Penang Island 11200 Malaysia",2,3,30,5.4657624,100.2852652
BLOK5 Food.Drink,"Italian,European,Asian","Blok5 Flat Jalan Tengah Bayan Baru, Bayan Lepas, Penang Island 11950 Malaysia",1,4,2,5.3174355,100.2874035
Huey&Wah Snack Bar,,"139 Lebuh Carnarvon Armenian Street Heritage Hotel, George Town, Penang Island 10200 Malaysia",1,4.5,2,5.4155149,100.3354894
Golden Bowl,"American,Asian","9 Medan Penaga Jelutong, George Town, Penang Island 11600 Malaysia",1,4,2,5.3894377,100.3076296
Baskin-Robbins,,,1,,0,,
MingYuan Seafood Steamboat,"Malaysian,Asian","2-1-01 Jalan Tingkat Mahsuri 1-Square, Bayan Lepas, Penang Island 11950 Malaysia",,4,4,5.329369,100.2841027
Nagomi_Penang,Japanese,"Block 2-01-02, Udini Square, Lebuh Tunku Kudin 3, George Town, Penang Island 11700 Malaysia",,4,1,5.3782376,100.3142186
Berlin's Bier Houz,German,"G-1-1, Bay Avenue Lorong Bayan Indah 1, Penang Island 11900 Malaysia",,3.5,3,5.3366259,100.3073128
Pentagon 5,"International,Italian","Seri Tanjung Pinang, Tanjung Tokong, Penang Island 10470 Malaysia",,4,2,5.454686,100.3129628
Sae Ma Eul BBQ,"Korean,Asian","29D-3-8, Automall, Maritime Piazza, Penang Island Malaysia",,3.5,4,5.3979304,100.3292783
The Kazan by The Volcano,"Japanese,Cafe,Fusion","56, Lebuh Victoria, George Town, Penang Island 10300 Malaysia",1,5,2,5.411687,100.336304
Peppermint Nagore Square,"Healthy,Hawaiian,Japanese Fusion,Fusion","87, Jalan Nagorr Nagore Square, George Town, Penang Island 10050 Malaysia",,5,1,5.4212472,100.3261826
Mr. Nyonya,"European,Asian,Street Food","121, Lebuh Campbell, Lebuh McNair, George Town, Penang Island 10300 Malaysia",2,5,1,5.4095494,100.32963
Kafe Segara,Thai,"255 Lebuh Kimberly, George Town, Penang Island 10100 Malaysia",1,5,1,5.417405,100.3310839
Hock Leong Yen Cafe,"Indian,Chinese","56, Lebuh China, Penang Island 10200 Malaysia",,5,1,5.417965,100.3397119
